[
  {
    "stationName": "Abbey Wood",
    "lat": 51.490719,
    "long": 0.120343,
    "crsCode": "ABW",
    "iataAirportCode": "",
    "constituentCountry": "england"
  },
  {
    "stationName": "Aber",
    "lat": 51.575363,
    "long": -3.23089,
    "crsCode": "ABE",
    "iataAirportCode": "",
    "constituentCountry": "wales"
  },
  {
    "stationName": "Abercynon",
    "lat": 51.64262,
    "long": -3.329549,
    "crsCode": "ACY",
    "iataAirportCode": "",
    "constituentCountry": "wales"
  },
  {
    "stationName": "Aberdare",
    "lat": 51.715019,
    "long": -3.44313,
    "crsCode": "ABA",
    "iataAirportCode": "",
    "constituentCountry": "wales"
  },
  {
    "stationName": "Aberdeen",
    "lat": 57.143127,
    "long": -2.097464,
    "crsCode": "ABD",
    "iataAirportCode": "",
    "constituentCountry": "scotland"
  },
  {
    "stationName": "Aberdour",
    "lat": 56.054646,
    "long": -3.300575,
    "crsCode": "AUR",
    "iataAirportCode": "",
    "constituentCountry": "scotland"
  },
  {
    "stationName": "Aberdovey",
    "lat": 52.543934,
    "long": -4.057118,
    "crsCode": "AVY",
    "iataAirportCode": "",
    "constituentCountry": "wales"
  },
  {
    "stationName": "Abererch",
    "lat": 52.898567,
    "long": -4.37423,
    "crsCode": "ABH",
    "iataAirportCode": "",
    "constituentCountry": "wales"
  },
  {
    "stationName": "Abergavenny",
    "lat": 51.81665,
    "long": -3.009679,
    "crsCode": "AGV",
    "iataAirportCode": "",
    "constituentCountry": "wales"
  },
  {
    "stationName": "Abergele & Pensarn",
    "lat": 53.294758,
    "long": -3.581343,
    "crsCode": "AGL",
    "iataAirportCode": "",
    "constituentCountry": "wales"
  },
  {
    "stationName": "Aberystwyth",
    "lat": 52.414017,
    "long": -4.081946,
    "crsCode": "AYW",
    "iataAirportCode": "",
    "constituentCountry": "wales"
  },
  {
    "stationName": "Accrington",
    "lat": 53.753193,
    "long": -2.370016,
    "crsCode": "ACR",
    "iataAirportCode": "",
    "constituentCountry": "england"
  },
  {
    "stationName": "Achanalt",
    "lat": 57.609921,
    "long": -4.914243,
    "crsCode": "AAT",
    "iataAirportCode": "",
    "constituentCountry": "scotland"
  },
  {
    "stationName": "Achnasheen",
    "lat": 57.579205,
    "long": -5.072421,
    "crsCode": "ACN",
    "iataAirportCode": "",
    "constituentCountry": "scotland"
  },
  {
    "stationName": "Achnashellach",
    "lat": 57.482697,
    "long": -5.333001,
    "crsCode": "ACH",
    "iataAirportCode": "",
    "constituentCountry": "scotland"
  },
  {
    "stationName": "Acklington",
    "lat": 55.307129,
    "long": -1.651816,
    "crsCode": "ACK",
    "iataAirportCode": "",
    "constituentCountry": "england"
  },
  {
    "stationName": "Acle",
    "lat": 52.634647,
    "long": 1.543981,
    "crsCode": "ACL",
    "iataAirportCode": "",
    "constituentCountry": "england"
  },
  {
    "stationName": "Acocks Green",
    "lat": 52.449291,
    "long": -1.81898,
    "crsCode": "ACG",
    "iataAirportCode": "",
    "constituentCountry": "england"
  },
  {
    "stationName": "Acton Bridge",
    "lat": 53.265961,
    "long": -2.602689,
    "crsCode": "ACB",
    "iataAirportCode": "",
    "constituentCountry": "england"
  },
  {
    "stationName": "Acton Central",
    "lat": 51.508717,
    "long": -0.263601,
    "crsCode": "ACC",
    "iataAirportCode": "",
    "constituentCountry": "england"
  },
  {
    "stationName": "Acton Main Line",
    "lat": 51.516865,
    "long": -0.26762,
    "crsCode": "AML",
    "iataAirportCode": "",
    "constituentCountry": "england"
  },
  {
    "stationName": "Adderley Park",
    "lat": 52.483505,
    "long": -1.854184,
    "crsCode": "ADD",
    "iataAirportCode": "",
    "constituentCountry": "england"
  },
  {
    "stationName": "Addiewell",
    "lat": 55.843449,
    "long": -3.60655,
    "crsCode": "ADW",
    "iataAirportCode": "",
    "constituentCountry": "scotland"
  },
  {
    "stationName": "Addlestone",
    "lat": 51.372414,
    "long": -0.48571,
    "crsCode": "ASN",
    "iataAirportCode": "",
    "constituentCountry": "england"
  },
  {
    "stationName": "Adisham",
    "lat": 51.241352,
    "long": 1.199277,
    "crsCode": "ADM",
    "iataAirportCode": "",
    "constituentCountry": "england"
  },
  {
    "stationName": "Adlington (Cheshire)",
    "lat": 53.319542,
    "long": -2.133571,
    "crsCode": "ADC",
    "iataAirportCode": "",
    "constituentCountry": "england"
  },
  {
    "stationName": "Adlington (Lancashire)",
    "lat": 53.612926,
    "long": -2.603084,
    "crsCode": "ADL",
    "iataAirportCode": "",
    "constituentCountry": "england"
  },
  {
    "stationName": "Adwick",
    "lat": 53.572994,
    "long": -1.181465,
    "crsCode": "AWK",
    "iataAirportCode": "",
    "constituentCountry": "england"
  },
  {
    "stationName": "Aigburth",
    "lat": 53.364614,
    "long": -2.927041,
    "crsCode": "AIG",
    "iataAirportCode": "",
    "constituentCountry": "england"
  },
  {
    "stationName": "Ainsdale",
    "lat": 53.601818,
    "long": -3.042691,
    "crsCode": "ANS",
    "iataAirportCode": "",
    "constituentCountry": "england"
  },
  {
    "stationName": "Aintree",
    "lat": 53.473995,
    "long": -2.956687,
    "crsCode": "AIN",
    "iataAirportCode": "",
    "constituentCountry": "england"
  },
  {
    "stationName": "Airbles",
    "lat": 55.782504,
    "long": -3.994447,
    "crsCode": "AIR",
    "iataAirportCode": "",
    "constituentCountry": "scotland"
  },
  {
    "stationName": "Airdrie",
    "lat": 55.864029,
    "long": -3.982952,
    "crsCode": "ADR",
    "iataAirportCode": "",
    "constituentCountry": "scotland"
  },
  {
    "stationName": "Albany Park",
    "lat": 51.435745,
    "long": 0.126427,
    "crsCode": "AYP",
    "iataAirportCode": "",
    "constituentCountry": "england"
  },
  {
    "stationName": "Albrighton",
    "lat": 52.637917,
    "long": -2.268913,
    "crsCode": "ALB",
    "iataAirportCode": "",
    "constituentCountry": "england"
  },
  {
    "stationName": "Alderley Edge",
    "lat": 53.303762,
    "long": -2.236812,
    "crsCode": "ALD",
    "iataAirportCode": "",
    "constituentCountry": "england"
  },
  {
    "stationName": "Aldermaston",
    "lat": 51.402047,
    "long": -1.136972,
    "crsCode": "AMT",
    "iataAirportCode": "",
    "constituentCountry": "england"
  },
  {
    "stationName": "Aldershot",
    "lat": 51.246151,
    "long": -0.760657,
    "crsCode": "AHT",
    "iataAirportCode": "",
    "constituentCountry": "england"
  },
  {
    "stationName": "Aldrington",
    "lat": 50.836601,
    "long": -0.182151,
    "crsCode": "AGT",
    "iataAirportCode": "",
    "constituentCountry": "england"
  },
  {
    "stationName": "Alexandra Palace",
    "lat": 51.598225,
    "long": -0.120129,
    "crsCode": "AAP",
    "iataAirportCode": "",
    "constituentCountry": "england"
  },
  {
    "stationName": "Alexandra Parade",
    "lat": 55.863724,
    "long": -4.211465,
    "crsCode": "AXP",
    "iataAirportCode": "",
    "constituentCountry": "scotland"
  },
  {
    "stationName": "Alexandria",
    "lat": 55.98513,
    "long": -4.577534,
    "crsCode": "ALX",
    "iataAirportCode": "",
    "constituentCountry": "scotland"
  },
  {
    "stationName": "Alfreton",
    "lat": 53.100414,
    "long": -1.369689,
    "crsCode": "ALF",
    "iataAirportCode": "",
    "constituentCountry": "england"
  },
  {
    "stationName": "Allens West",
    "lat": 54.524128,
    "long": -1.363418,
    "crsCode": "ALW",
    "iataAirportCode": "",
    "constituentCountry": "england"
  },
  {
    "stationName": "Alloa",
    "lat": 56.1179,
    "long": -3.7872,
    "crsCode": "ALO",
    "iataAirportCode": "",
    "constituentCountry": "scotland"
  },
  {
    "stationName": "Alness",
    "lat": 57.694477,
    "long": -4.249743,
    "crsCode": "ASS",
    "iataAirportCode": "",
    "constituentCountry": "scotland"
  },
  {
    "stationName": "Alnmouth",
    "lat": 55.392456,
    "long": -1.636858,
    "crsCode": "ALM",
    "iataAirportCode": "",
    "constituentCountry": "england"
  },
  {
    "stationName": "Alresford",
    "lat": 51.853828,
    "long": 0.997114,
    "crsCode": "ALR",
    "iataAirportCode": "",
    "constituentCountry": "england"
  },
  {
    "stationName": "Alsager",
    "lat": 53.093054,
    "long": -2.29861,
    "crsCode": "ASG",
    "iataAirportCode": "",
    "constituentCountry": "england"
  },
  {
    "stationName": "Althorne",
    "lat": 51.647526,
    "long": 0.753603,
    "crsCode": "ALN",
    "iataAirportCode": "",
    "constituentCountry": "england"
  },
  {
    "stationName": "Althorpe",
    "lat": 53.585262,
    "long": -0.732558,
    "crsCode": "ALP",
    "iataAirportCode": "",
    "constituentCountry": "england"
  },
  {
    "stationName": "Altnabreac",
    "lat": 58.388439,
    "long": -3.705279,
    "crsCode": "ABC",
    "iataAirportCode": "",
    "constituentCountry": "scotland"
  },
  {
    "stationName": "Alton",
    "lat": 51.151947,
    "long": -0.967658,
    "crsCode": "AON",
    "iataAirportCode": "",
    "constituentCountry": "england"
  },
  {
    "stationName": "Altrincham",
    "lat": 53.3874,
    "long": -2.347212,
    "crsCode": "ALT",
    "iataAirportCode": "",
    "constituentCountry": "england"
  },
  {
    "stationName": "Alvechurch",
    "lat": 52.346607,
    "long": -1.967854,
    "crsCode": "ALV",
    "iataAirportCode": "",
    "constituentCountry": "england"
  },
  {
    "stationName": "Ambergate",
    "lat": 53.060501,
    "long": -1.4807,
    "crsCode": "AMB",
    "iataAirportCode": "",
    "constituentCountry": "england"
  },
  {
    "stationName": "Amberley",
    "lat": 50.896507,
    "long": -0.542446,
    "crsCode": "AMY",
    "iataAirportCode": "",
    "constituentCountry": "england"
  },
  {
    "stationName": "Amersham",
    "lat": 51.67439,
    "long": -0.60613,
    "crsCode": "AMR",
    "iataAirportCode": "",
    "constituentCountry": "england"
  },
  {
    "stationName": "Ammanford",
    "lat": 51.795933,
    "long": -3.996783,
    "crsCode": "AMF",
    "iataAirportCode": "",
    "constituentCountry": "wales"
  },
  {
    "stationName": "Ancaster",
    "lat": 52.987888,
    "long": -0.535596,
    "crsCode": "ANC",
    "iataAirportCode": "",
    "constituentCountry": "england"
  },
  {
    "stationName": "Anderston",
    "lat": 55.859924,
    "long": -4.271969,
    "crsCode": "AND",
    "iataAirportCode": "",
    "constituentCountry": "scotland"
  },
  {
    "stationName": "Andover",
    "lat": 51.212048,
    "long": -1.493167,
    "crsCode": "ADV",
    "iataAirportCode": "",
    "constituentCountry": "england"
  },
  {
    "stationName": "Anerley",
    "lat": 51.41163,
    "long": -0.064348,
    "crsCode": "ANZ",
    "iataAirportCode": "",
    "constituentCountry": "england"
  },
  {
    "stationName": "Angmering",
    "lat": 50.816704,
    "long": -0.489559,
    "crsCode": "ANG",
    "iataAirportCode": "",
    "constituentCountry": "england"
  },
  {
    "stationName": "Annan",
    "lat": 54.98386,
    "long": -3.262603,
    "crsCode": "ANN",
    "iataAirportCode": "",
    "constituentCountry": "scotland"
  },
  {
    "stationName": "Anniesland",
    "lat": 55.889553,
    "long": -4.321684,
    "crsCode": "ANL",
    "iataAirportCode": "",
    "constituentCountry": "scotland"
  },
  {
    "stationName": "Ansdell & Fairhaven",
    "lat": 53.741558,
    "long": -2.993077,
    "crsCode": "AFV",
    "iataAirportCode": "",
    "constituentCountry": "england"
  },
  {
    "stationName": "Apperley Bridge",
    "lat": 53.84138,
    "long": -1.703065,
    "crsCode": "APY",
    "iataAirportCode": "",
    "constituentCountry": "england"
  },
  {
    "stationName": "Appleby",
    "lat": 54.58032,
    "long": -2.486692,
    "crsCode": "APP",
    "iataAirportCode": "",
    "constituentCountry": "england"
  },
  {
    "stationName": "Appledore (Kent)",
    "lat": 51.032623,
    "long": 0.816826,
    "crsCode": "APD",
    "iataAirportCode": "",
    "constituentCountry": "england"
  },
  {
    "stationName": "Appleford",
    "lat": 51.639562,
    "long": -1.242375,
    "crsCode": "APF",
    "iataAirportCode": "",
    "constituentCountry": "england"
  },
  {
    "stationName": "Appley Bridge",
    "lat": 53.579029,
    "long": -2.718906,
    "crsCode": "APB",
    "iataAirportCode": "",
    "constituentCountry": "england"
  },
  {
    "stationName": "Apsley",
    "lat": 51.732712,
    "long": -0.463568,
    "crsCode": "APS",
    "iataAirportCode": "",
    "constituentCountry": "england"
  },
  {
    "stationName": "Arbroath",
    "lat": 56.559628,
    "long": -2.588928,
    "crsCode": "ARB",
    "iataAirportCode": "",
    "constituentCountry": "scotland"
  },
  {
    "stationName": "Ardgay",
    "lat": 57.881119,
    "long": -4.362604,
    "crsCode": "ARD",
    "iataAirportCode": "",
    "constituentCountry": "scotland"
  },
  {
    "stationName": "Ardlui",
    "lat": 56.302025,
    "long": -4.721712,
    "crsCode": "AUI",
    "iataAirportCode": "",
    "constituentCountry": "scotland"
  },
  {
    "stationName": "Ardrossan Harbour",
    "lat": 55.640854,
    "long": -4.823461,
    "crsCode": "ADS",
    "iataAirportCode": "",
    "constituentCountry": "scotland"
  },
  {
    "stationName": "Ardrossan South Beach",
    "lat": 55.640495,
    "long": -4.799593,
    "crsCode": "ASB",
    "iataAirportCode": "",
    "constituentCountry": "scotland"
  },
  {
    "stationName": "Ardrossan Town",
    "lat": 55.639313,
    "long": -4.812212,
    "crsCode": "ADN",
    "iataAirportCode": "",
    "constituentCountry": "scotland"
  },
  {
    "stationName": "Ardwick",
    "lat": 53.47134,
    "long": -2.213893,
    "crsCode": "ADK",
    "iataAirportCode": "",
    "constituentCountry": "england"
  },
  {
    "stationName": "Argyle Street",
    "lat": 55.855938,
    "long": -4.244574,
    "crsCode": "AGS",
    "iataAirportCode": "",
    "constituentCountry": "scotland"
  },
  {
    "stationName": "Arisaig",
    "lat": 56.912617,
    "long": -5.839141,
    "crsCode": "ARG",
    "iataAirportCode": "",
    "constituentCountry": "scotland"
  },
  {
    "stationName": "Arlesey",
    "lat": 52.025938,
    "long": -0.266178,
    "crsCode": "ARL",
    "iataAirportCode": "",
    "constituentCountry": "england"
  },
  {
    "stationName": "Armadale",
    "lat": 55.88639,
    "long": -3.68504,
    "crsCode": "ARM",
    "iataAirportCode": "",
    "constituentCountry": "scotland"
  },
  {
    "stationName": "Armathwaite",
    "lat": 54.809611,
    "long": -2.77209,
    "crsCode": "AWT",
    "iataAirportCode": "",
    "constituentCountry": "england"
  },
  {
    "stationName": "Arnside",
    "lat": 54.202114,
    "long": -2.827783,
    "crsCode": "ARN",
    "iataAirportCode": "",
    "constituentCountry": "england"
  },
  {
    "stationName": "Arram",
    "lat": 53.884567,
    "long": -0.426833,
    "crsCode": "ARR",
    "iataAirportCode": "",
    "constituentCountry": "england"
  },
  {
    "stationName": "Arrochar & Tarbet",
    "lat": 56.204021,
    "long": -4.722822,
    "crsCode": "ART",
    "iataAirportCode": "",
    "constituentCountry": "scotland"
  },
  {
    "stationName": "Arundel",
    "lat": 50.848003,
    "long": -0.546796,
    "crsCode": "ARU",
    "iataAirportCode": "",
    "constituentCountry": "england"
  },
  {
    "stationName": "Ascot",
    "lat": 51.406185,
    "long": -0.675827,
    "crsCode": "ACT",
    "iataAirportCode": "",
    "constituentCountry": "england"
  },
  {
    "stationName": "Ascott-Under-Wychwood",
    "lat": 51.867376,
    "long": -1.564136,
    "crsCode": "AUW",
    "iataAirportCode": "",
    "constituentCountry": "england"
  },
  {
    "stationName": "Ash",
    "lat": 51.249222,
    "long": -0.711856,
    "crsCode": "ASH",
    "iataAirportCode": "",
    "constituentCountry": "england"
  },
  {
    "stationName": "Ash Vale",
    "lat": 51.272709,
    "long": -0.721247,
    "crsCode": "AHV",
    "iataAirportCode": "",
    "constituentCountry": "england"
  },
  {
    "stationName": "Ashburys",
    "lat": 53.471761,
    "long": -2.194991,
    "crsCode": "ABY",
    "iataAirportCode": "",
    "constituentCountry": "england"
  },
  {
    "stationName": "Ashchurch for Tewkesbury",
    "lat": 51.997158,
    "long": -2.10921,
    "crsCode": "ASC",
    "iataAirportCode": "",
    "constituentCountry": "england"
  },
  {
    "stationName": "Ashfield",
    "lat": 55.889214,
    "long": -4.2433,
    "crsCode": "ASF",
    "iataAirportCode": "",
    "constituentCountry": "scotland"
  },
  {
    "stationName": "Ashford International",
    "lat": 51.14335294,
    "long": 0.875167251,
    "crsCode": "AFK",
    "iataAirportCode": "",
    "constituentCountry": "england"
  },
  {
    "stationName": "Ashford Surrey",
    "lat": 51.436047,
    "long": -0.469229,
    "crsCode": "AFS",
    "iataAirportCode": "",
    "constituentCountry": "england"
  },
  {
    "stationName": "Ashington",
    "lat": 55.182,
    "long": -1.573,
    "crsCode": "ASL",
    "iataAirportCode": "",
    "constituentCountry": "england"
  },
  {
    "stationName": "Ashley",
    "lat": 53.355984,
    "long": -2.341029,
    "crsCode": "ASY",
    "iataAirportCode": "",
    "constituentCountry": "england"
  },
  {
    "stationName": "Ashley Down",
    "lat": 51.4788,
    "long": -2.5767,
    "crsCode": "ASD",
    "iataAirportCode": "",
    "constituentCountry": "england"
  },
  {
    "stationName": "Ashtead",
    "lat": 51.317822,
    "long": -0.308126,
    "crsCode": "AHD",
    "iataAirportCode": "",
    "constituentCountry": "england"
  },
  {
    "stationName": "Ashton-Under-Lyne",
    "lat": 53.491264,
    "long": -2.093415,
    "crsCode": "AHN",
    "iataAirportCode": "",
    "constituentCountry": "england"
  },
  {
    "stationName": "Ashurst Kent",
    "lat": 51.128601,
    "long": 0.152298,
    "crsCode": "AHS",
    "iataAirportCode": "",
    "constituentCountry": "england"
  },
  {
    "stationName": "Ashurst New Forest",
    "lat": 50.888865,
    "long": -1.525097,
    "crsCode": "ANF",
    "iataAirportCode": "",
    "constituentCountry": "england"
  },
  {
    "stationName": "Ashwell & Morden",
    "lat": 52.030586,
    "long": -0.10934,
    "crsCode": "AWM",
    "iataAirportCode": "",
    "constituentCountry": "england"
  },
  {
    "stationName": "Askam",
    "lat": 54.189049,
    "long": -3.204545,
    "crsCode": "ASK",
    "iataAirportCode": "",
    "constituentCountry": "england"
  },
  {
    "stationName": "Aslockton",
    "lat": 52.951351,
    "long": -0.898541,
    "crsCode": "ALK",
    "iataAirportCode": "",
    "constituentCountry": "england"
  },
  {
    "stationName": "Aspatria",
    "lat": 54.759338,
    "long": -3.331752,
    "crsCode": "ASP",
    "iataAirportCode": "",
    "constituentCountry": "england"
  },
  {
    "stationName": "Aspley Guise",
    "lat": 52.020725,
    "long": -0.631519,
    "crsCode": "APG",
    "iataAirportCode": "",
    "constituentCountry": "england"
  },
  {
    "stationName": "Aston",
    "lat": 52.505104,
    "long": -1.871788,
    "crsCode": "AST",
    "iataAirportCode": "",
    "constituentCountry": "england"
  },
  {
    "stationName": "Atherstone",
    "lat": 52.578949,
    "long": -1.552808,
    "crsCode": "ATH",
    "iataAirportCode": "",
    "constituentCountry": "england"
  },
  {
    "stationName": "Atherton",
    "lat": 53.528817,
    "long": -2.478683,
    "crsCode": "ATN",
    "iataAirportCode": "",
    "constituentCountry": "england"
  },
  {
    "stationName": "Attadale",
    "lat": 57.394871,
    "long": -5.456549,
    "crsCode": "ATT",
    "iataAirportCode": "",
    "constituentCountry": "scotland"
  },
  {
    "stationName": "Attenborough",
    "lat": 52.906322,
    "long": -1.231262,
    "crsCode": "ATB",
    "iataAirportCode": "",
    "constituentCountry": "england"
  },
  {
    "stationName": "Attleborough",
    "lat": 52.514214,
    "long": 1.022719,
    "crsCode": "ATL",
    "iataAirportCode": "",
    "constituentCountry": "england"
  },
  {
    "stationName": "Auchinleck",
    "lat": 55.47031,
    "long": -4.295389,
    "crsCode": "AUK",
    "iataAirportCode": "",
    "constituentCountry": "scotland"
  },
  {
    "stationName": "Audley End",
    "lat": 52.004398,
    "long": 0.20719,
    "crsCode": "AUD",
    "iataAirportCode": "",
    "constituentCountry": "england"
  },
  {
    "stationName": "Aughton Park",
    "lat": 53.55447,
    "long": -2.895095,
    "crsCode": "AUG",
    "iataAirportCode": "",
    "constituentCountry": "england"
  },
  {
    "stationName": "Aviemore",
    "lat": 57.18914,
    "long": -3.828348,
    "crsCode": "AVM",
    "iataAirportCode": "",
    "constituentCountry": "scotland"
  },
  {
    "stationName": "Avoncliff",
    "lat": 51.339596,
    "long": -2.281342,
    "crsCode": "AVF",
    "iataAirportCode": "",
    "constituentCountry": "england"
  },
  {
    "stationName": "Avonmouth",
    "lat": 51.500194,
    "long": -2.699332,
    "crsCode": "AVN",
    "iataAirportCode": "",
    "constituentCountry": "england"
  },
  {
    "stationName": "Axminster",
    "lat": 50.778976,
    "long": -3.005613,
    "crsCode": "AXM",
    "iataAirportCode": "",
    "constituentCountry": "england"
  },
  {
    "stationName": "Aylesbury",
    "lat": 51.813868,
    "long": -0.815048,
    "crsCode": "AYS",
    "iataAirportCode": "",
    "constituentCountry": "england"
  },
  {
    "stationName": "Aylesbury Vale Parkway",
    "lat": 51.8327,
    "long": -0.8623,
    "crsCode": "AVP",
    "iataAirportCode": "",
    "constituentCountry": "england"
  },
  {
    "stationName": "Aylesford",
    "lat": 51.301384,
    "long": 0.465964,
    "crsCode": "AYL",
    "iataAirportCode": "",
    "constituentCountry": "england"
  },
  {
    "stationName": "Aylesham",
    "lat": 51.227185,
    "long": 1.209682,
    "crsCode": "AYH",
    "iataAirportCode": "",
    "constituentCountry": "england"
  },
  {
    "stationName": "Ayr",
    "lat": 55.458248,
    "long": -4.626878,
    "crsCode": "AYR",
    "iataAirportCode": "",
    "constituentCountry": "scotland"
  },
  {
    "stationName": "Bache",
    "lat": 53.209312,
    "long": -2.892386,
    "crsCode": "BAC",
    "iataAirportCode": "",
    "constituentCountry": "england"
  },
  {
    "stationName": "Baglan",
    "lat": 51.61549,
    "long": -3.811182,
    "crsCode": "BAJ",
    "iataAirportCode": "",
    "constituentCountry": "wales"
  },
  {
    "stationName": "Bagshot",
    "lat": 51.364964,
    "long": -0.688501,
    "crsCode": "BAG",
    "iataAirportCode": "",
    "constituentCountry": "england"
  },
  {
    "stationName": "Baildon",
    "lat": 53.849682,
    "long": -1.753717,
    "crsCode": "BLD",
    "iataAirportCode": "",
    "constituentCountry": "england"
  },
  {
    "stationName": "Baillieston",
    "lat": 55.844761,
    "long": -4.11454,
    "crsCode": "BIO",
    "iataAirportCode": "",
    "constituentCountry": "scotland"
  },
  {
    "stationName": "Balcombe",
    "lat": 51.05624,
    "long": -0.137881,
    "crsCode": "BAB",
    "iataAirportCode": "",
    "constituentCountry": "england"
  },
  {
    "stationName": "Baldock",
    "lat": 51.993156,
    "long": -0.188106,
    "crsCode": "BDK",
    "iataAirportCode": "",
    "constituentCountry": "england"
  },
  {
    "stationName": "Balham",
    "lat": 51.443169,
    "long": -0.152403,
    "crsCode": "BAL",
    "iataAirportCode": "",
    "constituentCountry": "england"
  },
  {
    "stationName": "Balloch Central",
    "lat": 56.002983,
    "long": -4.583539,
    "crsCode": "BHC",
    "iataAirportCode": "",
    "constituentCountry": "scotland"
  },
  {
    "stationName": "Balmossie",
    "lat": 56.475548,
    "long": -2.83764,
    "crsCode": "BSI",
    "iataAirportCode": "",
    "constituentCountry": "scotland"
  },
  {
    "stationName": "Bamber Bridge",
    "lat": 53.726772,
    "long": -2.660793,
    "crsCode": "BMB",
    "iataAirportCode": "",
    "constituentCountry": "england"
  },
  {
    "stationName": "Bamford",
    "lat": 53.338985,
    "long": -1.689078,
    "crsCode": "BAM",
    "iataAirportCode": "",
    "constituentCountry": "england"
  },
  {
    "stationName": "Banavie",
    "lat": 56.84338,
    "long": -5.095477,
    "crsCode": "BNV",
    "iataAirportCode": "",
    "constituentCountry": "scotland"
  },
  {
    "stationName": "Banbury",
    "lat": 52.060925,
    "long": -1.327541,
    "crsCode": "BAN",
    "iataAirportCode": "",
    "constituentCountry": "england"
  },
  {
    "stationName": "Bangor (Gwynedd)",
    "lat": 53.222902,
    "long": -4.135505,
    "crsCode": "BNG",
    "iataAirportCode": "",
    "constituentCountry": "wales"
  },
  {
    "stationName": "Bank Hall",
    "lat": 53.437357,
    "long": -2.987509,
    "crsCode": "BAH",
    "iataAirportCode": "",
    "constituentCountry": "england"
  },
  {
    "stationName": "Banstead",
    "lat": 51.329922,
    "long": -0.214384,
    "crsCode": "BAD",
    "iataAirportCode": "",
    "constituentCountry": "england"
  },
  {
    "stationName": "Barassie",
    "lat": 55.5611,
    "long": -4.651181,
    "crsCode": "BSS",
    "iataAirportCode": "",
    "constituentCountry": "scotland"
  },
  {
    "stationName": "Bardon Mill",
    "lat": 54.974636,
    "long": -2.349922,
    "crsCode": "BLL",
    "iataAirportCode": "",
    "constituentCountry": "england"
  },
  {
    "stationName": "Bare Lane",
    "lat": 54.074473,
    "long": -2.835331,
    "crsCode": "BAR",
    "iataAirportCode": "",
    "constituentCountry": "england"
  },
  {
    "stationName": "Bargeddie",
    "lat": 55.851776,
    "long": -4.071789,
    "crsCode": "BGI",
    "iataAirportCode": "",
    "constituentCountry": "scotland"
  },
  {
    "stationName": "Bargoed",
    "lat": 51.692268,
    "long": -3.229717,
    "crsCode": "BGD",
    "iataAirportCode": "",
    "constituentCountry": "wales"
  },
  {
    "stationName": "Barking",
    "lat": 51.539982,
    "long": 0.080804,
    "crsCode": "BKG",
    "iataAirportCode": "",
    "constituentCountry": "england"
  },
  {
    "stationName": "Barking Riverside",
    "lat": 51.519108,
    "long": 0.114764,
    "crsCode": "BGV",
    "iataAirportCode": "",
    "constituentCountry": "england"
  },
  {
    "stationName": "Barlaston",
    "lat": 52.942856,
    "long": -2.168118,
    "crsCode": "BRT",
    "iataAirportCode": "",
    "constituentCountry": "england"
  },
  {
    "stationName": "Barming",
    "lat": 51.284904,
    "long": 0.479428,
    "crsCode": "BMG",
    "iataAirportCode": "",
    "constituentCountry": "england"
  },
  {
    "stationName": "Barmouth",
    "lat": 52.72287,
    "long": -4.056641,
    "crsCode": "BRM",
    "iataAirportCode": "",
    "constituentCountry": "wales"
  },
  {
    "stationName": "Barnehurst",
    "lat": 51.464798,
    "long": 0.160885,
    "crsCode": "BNH",
    "iataAirportCode": "",
    "constituentCountry": "england"
  },
  {
    "stationName": "Barnes",
    "lat": 51.467014,
    "long": -0.240711,
    "crsCode": "BNS",
    "iataAirportCode": "",
    "constituentCountry": "england"
  },
  {
    "stationName": "Barnes Bridge",
    "lat": 51.471676,
    "long": -0.252051,
    "crsCode": "BNI",
    "iataAirportCode": "",
    "constituentCountry": "england"
  },
  {
    "stationName": "Barnetby",
    "lat": 53.574219,
    "long": -0.409679,
    "crsCode": "BTB",
    "iataAirportCode": "",
    "constituentCountry": "england"
  },
  {
    "stationName": "Barnham",
    "lat": 50.831135,
    "long": -0.639627,
    "crsCode": "BAA",
    "iataAirportCode": "",
    "constituentCountry": "england"
  },
  {
    "stationName": "Barnhill",
    "lat": 55.877895,
    "long": -4.223463,
    "crsCode": "BNL",
    "iataAirportCode": "",
    "constituentCountry": "scotland"
  },
  {
    "stationName": "Barnsley",
    "lat": 53.553978,
    "long": -1.477688,
    "crsCode": "BNY",
    "iataAirportCode": "",
    "constituentCountry": "england"
  },
  {
    "stationName": "Barnstaple",
    "lat": 51.073532,
    "long": -4.064032,
    "crsCode": "BNP",
    "iataAirportCode": "",
    "constituentCountry": "england"
  },
  {
    "stationName": "Barnt Green",
    "lat": 52.361328,
    "long": -1.994098,
    "crsCode": "BTG",
    "iataAirportCode": "",
    "constituentCountry": "england"
  },
  {
    "stationName": "Barrhead",
    "lat": 55.804535,
    "long": -4.396411,
    "crsCode": "BRR",
    "iataAirportCode": "",
    "constituentCountry": "scotland"
  },
  {
    "stationName": "Barrhill",
    "lat": 55.097031,
    "long": -4.781834,
    "crsCode": "BRL",
    "iataAirportCode": "",
    "constituentCountry": "scotland"
  },
  {
    "stationName": "Barrow Haven",
    "lat": 53.697128,
    "long": -0.391427,
    "crsCode": "BAV",
    "iataAirportCode": "",
    "constituentCountry": "england"
  },
  {
    "stationName": "Barrow Upon Soar",
    "lat": 52.750244,
    "long": -1.14956,
    "crsCode": "BWS",
    "iataAirportCode": "",
    "constituentCountry": "england"
  },
  {
    "stationName": "Barrow-In-Furness",
    "lat": 54.118879,
    "long": -3.22614,
    "crsCode": "BIF",
    "iataAirportCode": "",
    "constituentCountry": "england"
  },
  {
    "stationName": "Barry",
    "lat": 51.396729,
    "long": -3.285023,
    "crsCode": "BRY",
    "iataAirportCode": "",
    "constituentCountry": "wales"
  },
  {
    "stationName": "Barry Docks",
    "lat": 51.402393,
    "long": -3.260749,
    "crsCode": "BYD",
    "iataAirportCode": "",
    "constituentCountry": "wales"
  },
  {
    "stationName": "Barry Island",
    "lat": 51.392361,
    "long": -3.273405,
    "crsCode": "BYI",
    "iataAirportCode": "",
    "constituentCountry": "wales"
  },
  {
    "stationName": "Barry Links",
    "lat": 56.493206,
    "long": -2.745444,
    "crsCode": "BYL",
    "iataAirportCode": "",
    "constituentCountry": "scotland"
  },
  {
    "stationName": "Barton-On-Humber",
    "lat": 53.688824,
    "long": -0.443233,
    "crsCode": "BAU",
    "iataAirportCode": "",
    "constituentCountry": "england"
  },
  {
    "stationName": "Basildon",
    "lat": 51.568672,
    "long": 0.457309,
    "crsCode": "BSO",
    "iataAirportCode": "",
    "constituentCountry": "england"
  },
  {
    "stationName": "Basingstoke",
    "lat": 51.26804,
    "long": -1.086896,
    "crsCode": "BSK",
    "iataAirportCode": "",
    "constituentCountry": "england"
  },
  {
    "stationName": "Bat & Ball",
    "lat": 51.289703,
    "long": 0.194258,
    "crsCode": "BBL",
    "iataAirportCode": "",
    "constituentCountry": "england"
  },
  {
    "stationName": "Bath Spa",
    "lat": 51.378059,
    "long": -2.356302,
    "crsCode": "BTH",
    "iataAirportCode": "",
    "constituentCountry": "england"
  },
  {
    "stationName": "Bathgate",
    "lat": 55.898678,
    "long": -3.644019,
    "crsCode": "BHG",
    "iataAirportCode": "",
    "constituentCountry": "scotland"
  },
  {
    "stationName": "Batley",
    "lat": 53.709129,
    "long": -1.622734,
    "crsCode": "BTL",
    "iataAirportCode": "",
    "constituentCountry": "england"
  },
  {
    "stationName": "Battersby",
    "lat": 54.457687,
    "long": -1.092945,
    "crsCode": "BTT",
    "iataAirportCode": "",
    "constituentCountry": "england"
  },
  {
    "stationName": "Battersea Park",
    "lat": 51.477272,
    "long": -0.148151,
    "crsCode": "BAK",
    "iataAirportCode": "",
    "constituentCountry": "england"
  },
  {
    "stationName": "Battle",
    "lat": 50.91312,
    "long": 0.495169,
    "crsCode": "BAT",
    "iataAirportCode": "",
    "constituentCountry": "england"
  },
  {
    "stationName": "Battlesbridge",
    "lat": 51.624805,
    "long": 0.565826,
    "crsCode": "BLB",
    "iataAirportCode": "",
    "constituentCountry": "england"
  },
  {
    "stationName": "Bayford",
    "lat": 51.758808,
    "long": -0.096074,
    "crsCode": "BAY",
    "iataAirportCode": "",
    "constituentCountry": "england"
  },
  {
    "stationName": "Beaconsfield",
    "lat": 51.611141,
    "long": -0.643644,
    "crsCode": "BCF",
    "iataAirportCode": "",
    "constituentCountry": "england"
  },
  {
    "stationName": "Bearley",
    "lat": 52.244252,
    "long": -1.750259,
    "crsCode": "BER",
    "iataAirportCode": "",
    "constituentCountry": "england"
  },
  {
    "stationName": "Bearsden",
    "lat": 55.917202,
    "long": -4.332945,
    "crsCode": "BRN",
    "iataAirportCode": "",
    "constituentCountry": "scotland"
  },
  {
    "stationName": "Bearsted",
    "lat": 51.275589,
    "long": 0.57786,
    "crsCode": "BSD",
    "iataAirportCode": "",
    "constituentCountry": "england"
  },
  {
    "stationName": "Beasdale",
    "lat": 56.899624,
    "long": -5.763864,
    "crsCode": "BSL",
    "iataAirportCode": "",
    "constituentCountry": "scotland"
  },
  {
    "stationName": "Beaulieu Road",
    "lat": 50.854206,
    "long": -1.505586,
    "crsCode": "BEU",
    "iataAirportCode": "",
    "constituentCountry": "england"
  },
  {
    "stationName": "Beauly",
    "lat": 57.478,
    "long": -4.4698,
    "crsCode": "BEL",
    "iataAirportCode": "",
    "constituentCountry": "scotland"
  },
  {
    "stationName": "Bebington",
    "lat": 53.357651,
    "long": -3.003659,
    "crsCode": "BEB",
    "iataAirportCode": "",
    "constituentCountry": "england"
  },
  {
    "stationName": "Beccles",
    "lat": 52.458481,
    "long": 1.569547,
    "crsCode": "BCC",
    "iataAirportCode": "",
    "constituentCountry": "england"
  },
  {
    "stationName": "Beckenham Hill",
    "lat": 51.424767,
    "long": -0.016497,
    "crsCode": "BEC",
    "iataAirportCode": "",
    "constituentCountry": "england"
  },
  {
    "stationName": "Beckenham Junction",
    "lat": 51.411446,
    "long": -0.027144,
    "crsCode": "BKJ",
    "iataAirportCode": "",
    "constituentCountry": "england"
  },
  {
    "stationName": "Bedford",
    "lat": 52.136175,
    "long": -0.47945,
    "crsCode": "BDM",
    "iataAirportCode": "",
    "constituentCountry": "england"
  },
  {
    "stationName": "Bedford St Johns",
    "lat": 52.129299,
    "long": -0.467348,
    "crsCode": "BSJ",
    "iataAirportCode": "",
    "constituentCountry": "england"
  },
  {
    "stationName": "Bedhampton",
    "lat": 50.853638,
    "long": -0.996989,
    "crsCode": "BDH",
    "iataAirportCode": "",
    "constituentCountry": "england"
  },
  {
    "stationName": "Bedminster",
    "lat": 51.440037,
    "long": -2.594184,
    "crsCode": "BMT",
    "iataAirportCode": "",
    "constituentCountry": "england"
  },
  {
    "stationName": "Bedworth",
    "lat": 52.479133,
    "long": -1.46749,
    "crsCode": "BEH",
    "iataAirportCode": "",
    "constituentCountry": "england"
  },
  {
    "stationName": "Bedwyn",
    "lat": 51.379715,
    "long": -1.599077,
    "crsCode": "BDW",
    "iataAirportCode": "",
    "constituentCountry": "england"
  },
  {
    "stationName": "Beeston",
    "lat": 52.920551,
    "long": -1.207211,
    "crsCode": "BEE",
    "iataAirportCode": "",
    "constituentCountry": "england"
  },
  {
    "stationName": "Bekesbourne",
    "lat": 51.261051,
    "long": 1.136125,
    "crsCode": "BKS",
    "iataAirportCode": "",
    "constituentCountry": "england"
  },
  {
    "stationName": "Belle Vue",
    "lat": 53.462181,
    "long": -2.180809,
    "crsCode": "BLV",
    "iataAirportCode": "",
    "constituentCountry": "england"
  },
  {
    "stationName": "Bellgrove",
    "lat": 55.857182,
    "long": -4.22547,
    "crsCode": "BLG",
    "iataAirportCode": "",
    "constituentCountry": "scotland"
  },
  {
    "stationName": "Bellingham",
    "lat": 51.433826,
    "long": -0.020421,
    "crsCode": "BGM",
    "iataAirportCode": "",
    "constituentCountry": "england"
  },
  {
    "stationName": "Bellshill",
    "lat": 55.816605,
    "long": -4.025222,
    "crsCode": "BLH",
    "iataAirportCode": "",
    "constituentCountry": "scotland"
  },
  {
    "stationName": "Belmont",
    "lat": 51.344086,
    "long": -0.199471,
    "crsCode": "BLM",
    "iataAirportCode": "",
    "constituentCountry": "england"
  },
  {
    "stationName": "Belper",
    "lat": 53.024555,
    "long": -1.482622,
    "crsCode": "BLP",
    "iataAirportCode": "",
    "constituentCountry": "england"
  },
  {
    "stationName": "Beltring",
    "lat": 51.204651,
    "long": 0.403518,
    "crsCode": "BEG",
    "iataAirportCode": "",
    "constituentCountry": "england"
  },
  {
    "stationName": "Belvedere",
    "lat": 51.491936,
    "long": 0.152088,
    "crsCode": "BVD",
    "iataAirportCode": "",
    "constituentCountry": "england"
  },
  {
    "stationName": "Bempton",
    "lat": 54.128296,
    "long": -0.180389,
    "crsCode": "BEM",
    "iataAirportCode": "",
    "constituentCountry": "england"
  },
  {
    "stationName": "Ben Rhydding",
    "lat": 53.926167,
    "long": -1.797429,
    "crsCode": "BEY",
    "iataAirportCode": "",
    "constituentCountry": "england"
  },
  {
    "stationName": "Benfleet",
    "lat": 51.543964,
    "long": 0.561273,
    "crsCode": "BEF",
    "iataAirportCode": "",
    "constituentCountry": "england"
  },
  {
    "stationName": "Bentham",
    "lat": 54.115791,
    "long": -2.510918,
    "crsCode": "BEN",
    "iataAirportCode": "",
    "constituentCountry": "england"
  },
  {
    "stationName": "Bentley (Hampshire)",
    "lat": 51.180695,
    "long": -0.868287,
    "crsCode": "BTY",
    "iataAirportCode": "",
    "constituentCountry": "england"
  },
  {
    "stationName": "Bentley (South Yorkshire)",
    "lat": 53.542865,
    "long": -1.148788,
    "crsCode": "BYK",
    "iataAirportCode": "",
    "constituentCountry": "england"
  },
  {
    "stationName": "Bere Alston",
    "lat": 50.485535,
    "long": -4.200418,
    "crsCode": "BAS",
    "iataAirportCode": "",
    "constituentCountry": "england"
  },
  {
    "stationName": "Bere Ferrers",
    "lat": 50.450798,
    "long": -4.181901,
    "crsCode": "BFE",
    "iataAirportCode": "",
    "constituentCountry": "england"
  },
  {
    "stationName": "Berkhamsted",
    "lat": 51.763638,
    "long": -0.562498,
    "crsCode": "BKM",
    "iataAirportCode": "",
    "constituentCountry": "england"
  },
  {
    "stationName": "Berkswell",
    "lat": 52.395851,
    "long": -1.642845,
    "crsCode": "BKW",
    "iataAirportCode": "",
    "constituentCountry": "england"
  },
  {
    "stationName": "Bermuda Park",
    "lat": 52.5029,
    "long": -1.4726,
    "crsCode": "BEP",
    "iataAirportCode": "",
    "constituentCountry": "england"
  },
  {
    "stationName": "Berney Arms",
    "lat": 52.589745,
    "long": 1.63043,
    "crsCode": "BYA",
    "iataAirportCode": "",
    "constituentCountry": "england"
  },
  {
    "stationName": "Berry Brow",
    "lat": 53.622368,
    "long": -1.797371,
    "crsCode": "BBW",
    "iataAirportCode": "",
    "constituentCountry": "england"
  },
  {
    "stationName": "Berrylands",
    "lat": 51.39838,
    "long": -0.282157,
    "crsCode": "BRS",
    "iataAirportCode": "",
    "constituentCountry": "england"
  },
  {
    "stationName": "Berwick (Sussex)",
    "lat": 50.840569,
    "long": 0.164587,
    "crsCode": "BRK",
    "iataAirportCode": "",
    "constituentCountry": "england"
  },
  {
    "stationName": "Berwick-Upon-Tweed",
    "lat": 55.774872,
    "long": -2.01112,
    "crsCode": "BWK",
    "iataAirportCode": "",
    "constituentCountry": "england"
  },
  {
    "stationName": "Bescar Lane",
    "lat": 53.623531,
    "long": -2.914703,
    "crsCode": "BES",
    "iataAirportCode": "",
    "constituentCountry": "england"
  },
  {
    "stationName": "Bescot Stadium",
    "lat": 52.562702,
    "long": -1.991116,
    "crsCode": "BSC",
    "iataAirportCode": "",
    "constituentCountry": "england"
  },
  {
    "stationName": "Betchworth",
    "lat": 51.247993,
    "long": -0.26771,
    "crsCode": "BTO",
    "iataAirportCode": "",
    "constituentCountry": "england"
  },
  {
    "stationName": "Bethnal Green",
    "lat": 51.524406,
    "long": -0.059747,
    "crsCode": "BET",
    "iataAirportCode": "",
    "constituentCountry": "england"
  },
  {
    "stationName": "Betws-Y-Coed",
    "lat": 53.092056,
    "long": -3.80091,
    "crsCode": "BYC",
    "iataAirportCode": "",
    "constituentCountry": "wales"
  },
  {
    "stationName": "Beverley",
    "lat": 53.842281,
    "long": -0.423855,
    "crsCode": "BEV",
    "iataAirportCode": "",
    "constituentCountry": "england"
  },
  {
    "stationName": "Bexhill",
    "lat": 50.840679,
    "long": 0.475678,
    "crsCode": "BEX",
    "iataAirportCode": "",
    "constituentCountry": "england"
  },
  {
    "stationName": "Bexley",
    "lat": 51.440742,
    "long": 0.148248,
    "crsCode": "BXY",
    "iataAirportCode": "",
    "constituentCountry": "england"
  },
  {
    "stationName": "Bexleyheath",
    "lat": 51.463493,
    "long": 0.133471,
    "crsCode": "BXH",
    "iataAirportCode": "",
    "constituentCountry": "england"
  },
  {
    "stationName": "Bicester North",
    "lat": 51.903401,
    "long": -1.150517,
    "crsCode": "BCS",
    "iataAirportCode": "",
    "constituentCountry": "england"
  },
  {
    "stationName": "Bicester Village",
    "lat": 51.893429,
    "long": -1.148393,
    "crsCode": "BIT",
    "iataAirportCode": "",
    "constituentCountry": "england"
  },
  {
    "stationName": "Bickley",
    "lat": 51.40033,
    "long": 0.044272,
    "crsCode": "BKL",
    "iataAirportCode": "",
    "constituentCountry": "england"
  },
  {
    "stationName": "Bidston",
    "lat": 53.40913,
    "long": -3.078589,
    "crsCode": "BID",
    "iataAirportCode": "",
    "constituentCountry": "england"
  },
  {
    "stationName": "Biggleswade",
    "lat": 52.085068,
    "long": -0.260294,
    "crsCode": "BIW",
    "iataAirportCode": "",
    "constituentCountry": "england"
  },
  {
    "stationName": "Bilbrook",
    "lat": 52.623695,
    "long": -2.186101,
    "crsCode": "BBK",
    "iataAirportCode": "",
    "constituentCountry": "england"
  },
  {
    "stationName": "Billericay",
    "lat": 51.628834,
    "long": 0.418656,
    "crsCode": "BIC",
    "iataAirportCode": "",
    "constituentCountry": "england"
  },
  {
    "stationName": "Billingham",
    "lat": 54.606327,
    "long": -1.278525,
    "crsCode": "BIL",
    "iataAirportCode": "",
    "constituentCountry": "england"
  },
  {
    "stationName": "Billingshurst",
    "lat": 51.014938,
    "long": -0.450348,
    "crsCode": "BIG",
    "iataAirportCode": "",
    "constituentCountry": "england"
  },
  {
    "stationName": "Bingham",
    "lat": 52.954536,
    "long": -0.952044,
    "crsCode": "BIN",
    "iataAirportCode": "",
    "constituentCountry": "england"
  },
  {
    "stationName": "Bingley",
    "lat": 53.84803,
    "long": -1.837327,
    "crsCode": "BIY",
    "iataAirportCode": "",
    "constituentCountry": "england"
  },
  {
    "stationName": "Birchgrove",
    "lat": 51.521687,
    "long": -3.203502,
    "crsCode": "BCG",
    "iataAirportCode": "",
    "constituentCountry": "wales"
  },
  {
    "stationName": "Birchington-On-Sea",
    "lat": 51.377956,
    "long": 1.300781,
    "crsCode": "BCH",
    "iataAirportCode": "",
    "constituentCountry": "england"
  },
  {
    "stationName": "Birchwood",
    "lat": 53.41193,
    "long": -2.52802,
    "crsCode": "BWD",
    "iataAirportCode": "",
    "constituentCountry": "england"
  },
  {
    "stationName": "Birkbeck",
    "lat": 51.403847,
    "long": -0.056218,
    "crsCode": "BIK",
    "iataAirportCode": "",
    "constituentCountry": "england"
  },
  {
    "stationName": "Birkdale",
    "lat": 53.633514,
    "long": -3.014742,
    "crsCode": "BDL",
    "iataAirportCode": "",
    "constituentCountry": "england"
  },
  {
    "stationName": "Birkenhead Central",
    "lat": 53.388244,
    "long": -3.020897,
    "crsCode": "BKC",
    "iataAirportCode": "",
    "constituentCountry": "england"
  },
  {
    "stationName": "Birkenhead Hamilton Square",
    "lat": 53.39469,
    "long": -3.01365,
    "crsCode": "BKQ",
    "iataAirportCode": "",
    "constituentCountry": "england"
  },
  {
    "stationName": "Birkenhead North",
    "lat": 53.404819,
    "long": -3.057425,
    "crsCode": "BKN",
    "iataAirportCode": "",
    "constituentCountry": "england"
  },
  {
    "stationName": "Birkenhead Park",
    "lat": 53.397417,
    "long": -3.03927,
    "crsCode": "BKP",
    "iataAirportCode": "",
    "constituentCountry": "england"
  },
  {
    "stationName": "Birmingham International",
    "lat": 52.450673,
    "long": -1.725149,
    "crsCode": "BHI",
    "iataAirportCode": "",
    "constituentCountry": "england"
  },
  {
    "stationName": "Birmingham Moor Street",
    "lat": 52.479053,
    "long": -1.892483,
    "crsCode": "BMO",
    "iataAirportCode": "",
    "constituentCountry": "england"
  },
  {
    "stationName": "Birmingham New Street",
    "lat": 52.478153,
    "long": -1.898375,
    "crsCode": "BHM",
    "iataAirportCode": "",
    "constituentCountry": "england"
  },
  {
    "stationName": "Birmingham Snow Hill",
    "lat": 52.483555,
    "long": -1.899833,
    "crsCode": "BSW",
    "iataAirportCode": "",
    "constituentCountry": "england"
  },
  {
    "stationName": "Bishop Auckland",
    "lat": 54.657482,
    "long": -1.677545,
    "crsCode": "BIA",
    "iataAirportCode": "",
    "constituentCountry": "england"
  },
  {
    "stationName": "Bishopbriggs",
    "lat": 55.903927,
    "long": -4.224958,
    "crsCode": "BBG",
    "iataAirportCode": "",
    "constituentCountry": "scotland"
  },
  {
    "stationName": "Bishops Stortford",
    "lat": 51.866692,
    "long": 0.16557,
    "crsCode": "BIS",
    "iataAirportCode": "",
    "constituentCountry": "england"
  },
  {
    "stationName": "Bishopstone (Sussex)",
    "lat": 50.78,
    "long": 0.0824,
    "crsCode": "BIP",
    "iataAirportCode": "",
    "constituentCountry": "england"
  },
  {
    "stationName": "Bishopton",
    "lat": 55.902206,
    "long": -4.501637,
    "crsCode": "BPT",
    "iataAirportCode": "",
    "constituentCountry": "scotland"
  },
  {
    "stationName": "Bitterne",
    "lat": 50.918343,
    "long": -1.378279,
    "crsCode": "BTE",
    "iataAirportCode": "",
    "constituentCountry": "england"
  },
  {
    "stationName": "Blackburn",
    "lat": 53.746513,
    "long": -2.479135,
    "crsCode": "BBN",
    "iataAirportCode": "",
    "constituentCountry": "england"
  },
  {
    "stationName": "Blackheath",
    "lat": 51.465706,
    "long": 0.008317,
    "crsCode": "BKH",
    "iataAirportCode": "",
    "constituentCountry": "england"
  },
  {
    "stationName": "Blackhorse Road",
    "lat": 51.586143,
    "long": -0.04123,
    "crsCode": "BHO",
    "iataAirportCode": "",
    "constituentCountry": "england"
  },
  {
    "stationName": "Blackpool North",
    "lat": 53.822772,
    "long": -3.049908,
    "crsCode": "BPN",
    "iataAirportCode": "",
    "constituentCountry": "england"
  },
  {
    "stationName": "Blackpool Pleasure Beach",
    "lat": 53.788154,
    "long": -3.053856,
    "crsCode": "BPB",
    "iataAirportCode": "",
    "constituentCountry": "england"
  },
  {
    "stationName": "Blackpool South",
    "lat": 53.798611,
    "long": -3.049081,
    "crsCode": "BPS",
    "iataAirportCode": "",
    "constituentCountry": "england"
  },
  {
    "stationName": "Blackridge",
    "lat": 55.88368,
    "long": -3.75047,
    "crsCode": "BKR",
    "iataAirportCode": "",
    "constituentCountry": "scotland"
  },
  {
    "stationName": "Blackrod",
    "lat": 53.591522,
    "long": -2.56954,
    "crsCode": "BLK",
    "iataAirportCode": "",
    "constituentCountry": "england"
  },
  {
    "stationName": "Blackwater",
    "lat": 51.33176,
    "long": -0.777023,
    "crsCode": "BAW",
    "iataAirportCode": "",
    "constituentCountry": "england"
  },
  {
    "stationName": "Blaenau Ffestiniog",
    "lat": 52.996284,
    "long": -3.944449,
    "crsCode": "BFF",
    "iataAirportCode": "",
    "constituentCountry": "wales"
  },
  {
    "stationName": "Blair Atholl",
    "lat": 56.765614,
    "long": -3.85025,
    "crsCode": "BLA",
    "iataAirportCode": "",
    "constituentCountry": "scotland"
  },
  {
    "stationName": "Blairhill",
    "lat": 55.866653,
    "long": -4.04221,
    "crsCode": "BAI",
    "iataAirportCode": "",
    "constituentCountry": "scotland"
  },
  {
    "stationName": "Blake Street",
    "lat": 52.605054,
    "long": -1.844888,
    "crsCode": "BKT",
    "iataAirportCode": "",
    "constituentCountry": "england"
  },
  {
    "stationName": "Blakedown",
    "lat": 52.406147,
    "long": -2.176365,
    "crsCode": "BKD",
    "iataAirportCode": "",
    "constituentCountry": "england"
  },
  {
    "stationName": "Blantyre",
    "lat": 55.7976,
    "long": -4.086466,
    "crsCode": "BLT",
    "iataAirportCode": "",
    "constituentCountry": "scotland"
  },
  {
    "stationName": "Blaydon",
    "lat": 54.965813,
    "long": -1.712578,
    "crsCode": "BLO",
    "iataAirportCode": "",
    "constituentCountry": "england"
  },
  {
    "stationName": "Bleasby",
    "lat": 53.041649,
    "long": -0.942469,
    "crsCode": "BSB",
    "iataAirportCode": "",
    "constituentCountry": "england"
  },
  {
    "stationName": "Bletchley",
    "lat": 51.995339,
    "long": -0.736368,
    "crsCode": "BLY",
    "iataAirportCode": "",
    "constituentCountry": "england"
  },
  {
    "stationName": "Bloxwich",
    "lat": 52.61853,
    "long": -2.011783,
    "crsCode": "BLX",
    "iataAirportCode": "",
    "constituentCountry": "england"
  },
  {
    "stationName": "Bloxwich North",
    "lat": 52.625637,
    "long": -2.019173,
    "crsCode": "BWN",
    "iataAirportCode": "",
    "constituentCountry": "england"
  },
  {
    "stationName": "Blundellsands & Crosby",
    "lat": 53.487675,
    "long": -3.039889,
    "crsCode": "BLN",
    "iataAirportCode": "",
    "constituentCountry": "england"
  },
  {
    "stationName": "Blythe Bridge",
    "lat": 52.968124,
    "long": -2.066966,
    "crsCode": "BYB",
    "iataAirportCode": "",
    "constituentCountry": "england"
  },
  {
    "stationName": "Bodmin Parkway",
    "lat": 50.445822,
    "long": -4.663026,
    "crsCode": "BOD",
    "iataAirportCode": "",
    "constituentCountry": "england"
  },
  {
    "stationName": "Bodorgan",
    "lat": 53.204292,
    "long": -4.418067,
    "crsCode": "BOR",
    "iataAirportCode": "",
    "constituentCountry": "wales"
  },
  {
    "stationName": "Bognor Regis",
    "lat": 50.786594,
    "long": -0.676384,
    "crsCode": "BOG",
    "iataAirportCode": "",
    "constituentCountry": "england"
  },
  {
    "stationName": "Bogston",
    "lat": 55.937267,
    "long": -4.713676,
    "crsCode": "BGS",
    "iataAirportCode": "",
    "constituentCountry": "scotland"
  },
  {
    "stationName": "Bolton",
    "lat": 53.573983,
    "long": -2.425661,
    "crsCode": "BON",
    "iataAirportCode": "",
    "constituentCountry": "england"
  },
  {
    "stationName": "Bolton-On-Dearne",
    "lat": 53.518986,
    "long": -1.312217,
    "crsCode": "BTD",
    "iataAirportCode": "",
    "constituentCountry": "england"
  },
  {
    "stationName": "Bond Street",
    "lat": 51.514,
    "long": -0.15,
    "crsCode": "BDS",
    "iataAirportCode": "",
    "constituentCountry": "england"
  },
  {
    "stationName": "Bookham",
    "lat": 51.288334,
    "long": -0.385224,
    "crsCode": "BKA",
    "iataAirportCode": "",
    "constituentCountry": "england"
  },
  {
    "stationName": "Bootle (Cumbria)",
    "lat": 54.290249,
    "long": -3.394818,
    "crsCode": "BOC",
    "iataAirportCode": "",
    "constituentCountry": "england"
  },
  {
    "stationName": "Bootle New Strand",
    "lat": 53.453357,
    "long": -2.994676,
    "crsCode": "BNW",
    "iataAirportCode": "",
    "constituentCountry": "england"
  },
  {
    "stationName": "Bootle Oriel Road",
    "lat": 53.446559,
    "long": -2.995791,
    "crsCode": "BOT",
    "iataAirportCode": "",
    "constituentCountry": "england"
  },
  {
    "stationName": "Bordesley",
    "lat": 52.471844,
    "long": -1.877771,
    "crsCode": "BBS",
    "iataAirportCode": "",
    "constituentCountry": "england"
  },
  {
    "stationName": "Borough Green & Wrotham",
    "lat": 51.29295,
    "long": 0.306296,
    "crsCode": "BRG",
    "iataAirportCode": "",
    "constituentCountry": "england"
  },
  {
    "stationName": "Borth",
    "lat": 52.491001,
    "long": -4.050236,
    "crsCode": "BRH",
    "iataAirportCode": "",
    "constituentCountry": "wales"
  },
  {
    "stationName": "Bosham",
    "lat": 50.843262,
    "long": -0.846655,
    "crsCode": "BOH",
    "iataAirportCode": "",
    "constituentCountry": "england"
  },
  {
    "stationName": "Boston",
    "lat": 52.978802,
    "long": -0.030949,
    "crsCode": "BSN",
    "iataAirportCode": "",
    "constituentCountry": "england"
  },
  {
    "stationName": "Botley",
    "lat": 50.916748,
    "long": -1.258809,
    "crsCode": "BOE",
    "iataAirportCode": "",
    "constituentCountry": "england"
  },
  {
    "stationName": "Bottesford",
    "lat": 52.944962,
    "long": -0.796012,
    "crsCode": "BTF",
    "iataAirportCode": "",
    "constituentCountry": "england"
  },
  {
    "stationName": "Bourne End",
    "lat": 51.576538,
    "long": -0.711287,
    "crsCode": "BNE",
    "iataAirportCode": "",
    "constituentCountry": "england"
  },
  {
    "stationName": "Bournemouth",
    "lat": 50.727478,
    "long": -1.863955,
    "crsCode": "BMH",
    "iataAirportCode": "",
    "constituentCountry": "england"
  },
  {
    "stationName": "Bournville",
    "lat": 52.426937,
    "long": -1.926434,
    "crsCode": "BRV",
    "iataAirportCode": "",
    "constituentCountry": "england"
  },
  {
    "stationName": "Bow Brickhill",
    "lat": 52.003475,
    "long": -0.696154,
    "crsCode": "BWB",
    "iataAirportCode": "",
    "constituentCountry": "england"
  },
  {
    "stationName": "Bow Street",
    "lat": 52.439914,
    "long": -4.03036,
    "crsCode": "BOW",
    "iataAirportCode": "",
    "constituentCountry": "wales"
  },
  {
    "stationName": "Bowes Park",
    "lat": 51.607216,
    "long": -0.119761,
    "crsCode": "BOP",
    "iataAirportCode": "",
    "constituentCountry": "england"
  },
  {
    "stationName": "Bowling",
    "lat": 55.931129,
    "long": -4.493879,
    "crsCode": "BWG",
    "iataAirportCode": "",
    "constituentCountry": "scotland"
  },
  {
    "stationName": "Box Hill & Westhumble",
    "lat": 51.253376,
    "long": -0.329128,
    "crsCode": "BXW",
    "iataAirportCode": "",
    "constituentCountry": "england"
  },
  {
    "stationName": "Bracknell",
    "lat": 51.413319,
    "long": -0.751833,
    "crsCode": "BCE",
    "iataAirportCode": "",
    "constituentCountry": "england"
  },
  {
    "stationName": "Bradford Forster Square",
    "lat": 53.79575,
    "long": -1.752505,
    "crsCode": "BDQ",
    "iataAirportCode": "",
    "constituentCountry": "england"
  },
  {
    "stationName": "Bradford Interchange",
    "lat": 53.791196,
    "long": -1.749701,
    "crsCode": "BDI",
    "iataAirportCode": "",
    "constituentCountry": "england"
  },
  {
    "stationName": "Bradford-On-Avon",
    "lat": 51.345058,
    "long": -2.252669,
    "crsCode": "BOA",
    "iataAirportCode": "",
    "constituentCountry": "england"
  },
  {
    "stationName": "Brading",
    "lat": 50.678509,
    "long": -1.13801,
    "crsCode": "BDN",
    "iataAirportCode": "",
    "constituentCountry": "england"
  },
  {
    "stationName": "Braintree",
    "lat": 51.874989,
    "long": 0.558261,
    "crsCode": "BTR",
    "iataAirportCode": "",
    "constituentCountry": "england"
  },
  {
    "stationName": "Braintree Freeport",
    "lat": 51.869316,
    "long": 0.568258,
    "crsCode": "BTP",
    "iataAirportCode": "",
    "constituentCountry": "england"
  },
  {
    "stationName": "Bramhall",
    "lat": 53.359959,
    "long": -2.162249,
    "crsCode": "BML",
    "iataAirportCode": "",
    "constituentCountry": "england"
  },
  {
    "stationName": "Bramley (Hants)",
    "lat": 51.32988,
    "long": -1.061265,
    "crsCode": "BMY",
    "iataAirportCode": "",
    "constituentCountry": "england"
  },
  {
    "stationName": "Bramley (West Yorkshire)",
    "lat": 53.803532,
    "long": -1.630985,
    "crsCode": "BLE",
    "iataAirportCode": "",
    "constituentCountry": "england"
  },
  {
    "stationName": "Brampton (Cumbria)",
    "lat": 54.932655,
    "long": -2.703814,
    "crsCode": "BMP",
    "iataAirportCode": "",
    "constituentCountry": "england"
  },
  {
    "stationName": "Brampton (Suffolk)",
    "lat": 52.395397,
    "long": 1.543871,
    "crsCode": "BRP",
    "iataAirportCode": "",
    "constituentCountry": "england"
  },
  {
    "stationName": "Branchton",
    "lat": 55.940647,
    "long": -4.803598,
    "crsCode": "BCN",
    "iataAirportCode": "",
    "constituentCountry": "scotland"
  },
  {
    "stationName": "Brandon",
    "lat": 52.454479,
    "long": 0.624116,
    "crsCode": "BND",
    "iataAirportCode": "",
    "constituentCountry": "england"
  },
  {
    "stationName": "Branksome",
    "lat": 50.727528,
    "long": -1.919211,
    "crsCode": "BSM",
    "iataAirportCode": "",
    "constituentCountry": "england"
  },
  {
    "stationName": "Braystones",
    "lat": 54.43956,
    "long": -3.543406,
    "crsCode": "BYS",
    "iataAirportCode": "",
    "constituentCountry": "england"
  },
  {
    "stationName": "Bredbury",
    "lat": 53.422939,
    "long": -2.109823,
    "crsCode": "BDY",
    "iataAirportCode": "",
    "constituentCountry": "england"
  },
  {
    "stationName": "Breich",
    "lat": 55.827351,
    "long": -3.668147,
    "crsCode": "BRC",
    "iataAirportCode": "",
    "constituentCountry": "scotland"
  },
  {
    "stationName": "Brent Cross West",
    "lat": 51.5687,
    "long": -0.2269,
    "crsCode": "BCZ",
    "iataAirportCode": "",
    "constituentCountry": "england"
  },
  {
    "stationName": "Brentford",
    "lat": 51.487804,
    "long": -0.309048,
    "crsCode": "BFD",
    "iataAirportCode": "",
    "constituentCountry": "england"
  },
  {
    "stationName": "Brentwood",
    "lat": 51.61322,
    "long": 0.30083,
    "crsCode": "BRE",
    "iataAirportCode": "",
    "constituentCountry": "england"
  },
  {
    "stationName": "Bricket Wood",
    "lat": 51.705223,
    "long": -0.358846,
    "crsCode": "BWO",
    "iataAirportCode": "",
    "constituentCountry": "england"
  },
  {
    "stationName": "Bridge of Allan",
    "lat": 56.157429,
    "long": -3.956166,
    "crsCode": "BEA",
    "iataAirportCode": "",
    "constituentCountry": "scotland"
  },
  {
    "stationName": "Bridge of Orchy",
    "lat": 56.515926,
    "long": -4.763048,
    "crsCode": "BRO",
    "iataAirportCode": "",
    "constituentCountry": "scotland"
  },
  {
    "stationName": "Bridgend",
    "lat": 51.506481,
    "long": -3.576296,
    "crsCode": "BGN",
    "iataAirportCode": "",
    "constituentCountry": "wales"
  },
  {
    "stationName": "Bridgeton",
    "lat": 55.849968,
    "long": -4.226668,
    "crsCode": "BDG",
    "iataAirportCode": "",
    "constituentCountry": "scotland"
  },
  {
    "stationName": "Bridgwater",
    "lat": 51.128025,
    "long": -2.99031,
    "crsCode": "BWT",
    "iataAirportCode": "",
    "constituentCountry": "england"
  },
  {
    "stationName": "Bridlington",
    "lat": 54.084545,
    "long": -0.200659,
    "crsCode": "BDT",
    "iataAirportCode": "",
    "constituentCountry": "england"
  },
  {
    "stationName": "Brierfield",
    "lat": 53.824535,
    "long": -2.236959,
    "crsCode": "BRF",
    "iataAirportCode": "",
    "constituentCountry": "england"
  },
  {
    "stationName": "Brigg",
    "lat": 53.549137,
    "long": -0.486094,
    "crsCode": "BGG",
    "iataAirportCode": "",
    "constituentCountry": "england"
  },
  {
    "stationName": "Brighouse",
    "lat": 53.698734,
    "long": -1.781855,
    "crsCode": "BGH",
    "iataAirportCode": "",
    "constituentCountry": "england"
  },
  {
    "stationName": "Brighton",
    "lat": 50.829659,
    "long": -0.141234,
    "crsCode": "BTN",
    "iataAirportCode": "",
    "constituentCountry": "england"
  },
  {
    "stationName": "Brimsdown",
    "lat": 51.655224,
    "long": -0.031022,
    "crsCode": "BMD",
    "iataAirportCode": "",
    "constituentCountry": "england"
  },
  {
    "stationName": "Brinnington",
    "lat": 53.431881,
    "long": -2.134097,
    "crsCode": "BNT",
    "iataAirportCode": "",
    "constituentCountry": "england"
  },
  {
    "stationName": "Bristol Parkway",
    "lat": 51.514061,
    "long": -2.53461,
    "crsCode": "BPW",
    "iataAirportCode": "",
    "constituentCountry": "england"
  },
  {
    "stationName": "Bristol Temple Meads",
    "lat": 51.449093,
    "long": -2.581349,
    "crsCode": "BRI",
    "iataAirportCode": "",
    "constituentCountry": "england"
  },
  {
    "stationName": "Brithdir",
    "lat": 51.710266,
    "long": -3.228765,
    "crsCode": "BHD",
    "iataAirportCode": "",
    "constituentCountry": "wales"
  },
  {
    "stationName": "Briton Ferry",
    "lat": 51.637852,
    "long": -3.8193,
    "crsCode": "BNF",
    "iataAirportCode": "",
    "constituentCountry": "wales"
  },
  {
    "stationName": "Brixton",
    "lat": 51.463245,
    "long": -0.114164,
    "crsCode": "BRX",
    "iataAirportCode": "",
    "constituentCountry": "england"
  },
  {
    "stationName": "Broad Green",
    "lat": 53.40654,
    "long": -2.893267,
    "crsCode": "BGE",
    "iataAirportCode": "",
    "constituentCountry": "england"
  },
  {
    "stationName": "Broadbottom",
    "lat": 53.440968,
    "long": -2.01653,
    "crsCode": "BDB",
    "iataAirportCode": "",
    "constituentCountry": "england"
  },
  {
    "stationName": "Broadstairs",
    "lat": 51.360653,
    "long": 1.43317,
    "crsCode": "BSR",
    "iataAirportCode": "",
    "constituentCountry": "england"
  },
  {
    "stationName": "Brockenhurst",
    "lat": 50.816708,
    "long": -1.574112,
    "crsCode": "BCU",
    "iataAirportCode": "",
    "constituentCountry": "england"
  },
  {
    "stationName": "Brockholes",
    "lat": 53.597149,
    "long": -1.770299,
    "crsCode": "BHS",
    "iataAirportCode": "",
    "constituentCountry": "england"
  },
  {
    "stationName": "Brockley",
    "lat": 51.464684,
    "long": -0.037797,
    "crsCode": "BCY",
    "iataAirportCode": "",
    "constituentCountry": "england"
  },
  {
    "stationName": "Brockley Whins",
    "lat": 54.958672,
    "long": -1.462749,
    "crsCode": "BNR",
    "iataAirportCode": "",
    "constituentCountry": "england"
  },
  {
    "stationName": "Bromborough",
    "lat": 53.322146,
    "long": -2.987058,
    "crsCode": "BOM",
    "iataAirportCode": "",
    "constituentCountry": "england"
  },
  {
    "stationName": "Bromborough Rake",
    "lat": 53.329899,
    "long": -2.989644,
    "crsCode": "BMR",
    "iataAirportCode": "",
    "constituentCountry": "england"
  },
  {
    "stationName": "Bromley Cross",
    "lat": 53.613743,
    "long": -2.409614,
    "crsCode": "BMC",
    "iataAirportCode": "",
    "constituentCountry": "england"
  },
  {
    "stationName": "Bromley North",
    "lat": 51.408894,
    "long": 0.017325,
    "crsCode": "BMN",
    "iataAirportCode": "",
    "constituentCountry": "england"
  },
  {
    "stationName": "Bromley South",
    "lat": 51.399887,
    "long": 0.018374,
    "crsCode": "BMS",
    "iataAirportCode": "",
    "constituentCountry": "england"
  },
  {
    "stationName": "Bromsgrove",
    "lat": 52.322662,
    "long": -2.048379,
    "crsCode": "BMV",
    "iataAirportCode": "",
    "constituentCountry": "england"
  },
  {
    "stationName": "Brondesbury",
    "lat": 51.545574,
    "long": -0.203063,
    "crsCode": "BSY",
    "iataAirportCode": "",
    "constituentCountry": "england"
  },
  {
    "stationName": "Brondesbury Park",
    "lat": 51.540896,
    "long": -0.209955,
    "crsCode": "BSP",
    "iataAirportCode": "",
    "constituentCountry": "england"
  },
  {
    "stationName": "Brookmans Park",
    "lat": 51.720955,
    "long": -0.204811,
    "crsCode": "BPK",
    "iataAirportCode": "",
    "constituentCountry": "england"
  },
  {
    "stationName": "Brookwood",
    "lat": 51.303215,
    "long": -0.635753,
    "crsCode": "BKO",
    "iataAirportCode": "",
    "constituentCountry": "england"
  },
  {
    "stationName": "Broome",
    "lat": 52.422745,
    "long": -2.88524,
    "crsCode": "BME",
    "iataAirportCode": "",
    "constituentCountry": "england"
  },
  {
    "stationName": "Broomfleet",
    "lat": 53.740131,
    "long": -0.673328,
    "crsCode": "BMF",
    "iataAirportCode": "",
    "constituentCountry": "england"
  },
  {
    "stationName": "Brora",
    "lat": 58.012657,
    "long": -3.853251,
    "crsCode": "BRA",
    "iataAirportCode": "",
    "constituentCountry": "scotland"
  },
  {
    "stationName": "Brough",
    "lat": 53.726452,
    "long": -0.578255,
    "crsCode": "BUH",
    "iataAirportCode": "",
    "constituentCountry": "england"
  },
  {
    "stationName": "Broughty Ferry",
    "lat": 56.467213,
    "long": -2.873153,
    "crsCode": "BYF",
    "iataAirportCode": "",
    "constituentCountry": "scotland"
  },
  {
    "stationName": "Broxbourne",
    "lat": 51.745712,
    "long": -0.011157,
    "crsCode": "BXB",
    "iataAirportCode": "",
    "constituentCountry": "england"
  },
  {
    "stationName": "Bruce Grove",
    "lat": 51.592918,
    "long": -0.06982,
    "crsCode": "BCV",
    "iataAirportCode": "",
    "constituentCountry": "england"
  },
  {
    "stationName": "Brundall",
    "lat": 52.619747,
    "long": 1.439316,
    "crsCode": "BDA",
    "iataAirportCode": "",
    "constituentCountry": "england"
  },
  {
    "stationName": "Brundall Gardens",
    "lat": 52.623035,
    "long": 1.418896,
    "crsCode": "BGA",
    "iataAirportCode": "",
    "constituentCountry": "england"
  },
  {
    "stationName": "Brunstane",
    "lat": 55.94143,
    "long": -3.10064,
    "crsCode": "BSU",
    "iataAirportCode": "",
    "constituentCountry": "scotland"
  },
  {
    "stationName": "Brunswick",
    "lat": 53.382153,
    "long": -2.975665,
    "crsCode": "BRW",
    "iataAirportCode": "",
    "constituentCountry": "england"
  },
  {
    "stationName": "Bruton",
    "lat": 51.111584,
    "long": -2.447103,
    "crsCode": "BRU",
    "iataAirportCode": "",
    "constituentCountry": "england"
  },
  {
    "stationName": "Bryn",
    "lat": 53.499893,
    "long": -2.647233,
    "crsCode": "BYN",
    "iataAirportCode": "",
    "constituentCountry": "england"
  },
  {
    "stationName": "Buckenham",
    "lat": 52.59816,
    "long": 1.47013,
    "crsCode": "BUC",
    "iataAirportCode": "",
    "constituentCountry": "england"
  },
  {
    "stationName": "Buckley",
    "lat": 53.163021,
    "long": -3.055948,
    "crsCode": "BCK",
    "iataAirportCode": "",
    "constituentCountry": "wales"
  },
  {
    "stationName": "Bucknell",
    "lat": 52.357525,
    "long": -2.948551,
    "crsCode": "BUK",
    "iataAirportCode": "",
    "constituentCountry": "england"
  },
  {
    "stationName": "Buckshaw Parkway",
    "lat": 53.67283,
    "long": -2.66447,
    "crsCode": "BSV",
    "iataAirportCode": "",
    "constituentCountry": "england"
  },
  {
    "stationName": "Bugle",
    "lat": 50.399979,
    "long": -4.791736,
    "crsCode": "BGL",
    "iataAirportCode": "",
    "constituentCountry": "england"
  },
  {
    "stationName": "Builth Road",
    "lat": 52.169289,
    "long": -3.427068,
    "crsCode": "BHR",
    "iataAirportCode": "",
    "constituentCountry": "wales"
  },
  {
    "stationName": "Bulwell",
    "lat": 52.999625,
    "long": -1.196115,
    "crsCode": "BLW",
    "iataAirportCode": "",
    "constituentCountry": "england"
  },
  {
    "stationName": "Bures",
    "lat": 51.97094,
    "long": 0.769021,
    "crsCode": "BUE",
    "iataAirportCode": "",
    "constituentCountry": "england"
  },
  {
    "stationName": "Burgess Hill",
    "lat": 50.953552,
    "long": -0.127749,
    "crsCode": "BUG",
    "iataAirportCode": "",
    "constituentCountry": "england"
  },
  {
    "stationName": "Burley Park",
    "lat": 53.808743,
    "long": -1.576277,
    "crsCode": "BUY",
    "iataAirportCode": "",
    "constituentCountry": "england"
  },
  {
    "stationName": "Burley-In-Wharfedale",
    "lat": 53.908112,
    "long": -1.753363,
    "crsCode": "BUW",
    "iataAirportCode": "",
    "constituentCountry": "england"
  },
  {
    "stationName": "Burnage",
    "lat": 53.421205,
    "long": -2.215896,
    "crsCode": "BNA",
    "iataAirportCode": "",
    "constituentCountry": "england"
  },
  {
    "stationName": "Burneside",
    "lat": 54.355305,
    "long": -2.766231,
    "crsCode": "BUD",
    "iataAirportCode": "",
    "constituentCountry": "england"
  },
  {
    "stationName": "Burnham",
    "lat": 51.523538,
    "long": -0.647335,
    "crsCode": "BNM",
    "iataAirportCode": "",
    "constituentCountry": "england"
  },
  {
    "stationName": "Burnham-On-Crouch",
    "lat": 51.633526,
    "long": 0.813459,
    "crsCode": "BUU",
    "iataAirportCode": "",
    "constituentCountry": "england"
  },
  {
    "stationName": "Burnley Barracks",
    "lat": 53.791237,
    "long": -2.258014,
    "crsCode": "BUB",
    "iataAirportCode": "",
    "constituentCountry": "england"
  },
  {
    "stationName": "Burnley Central",
    "lat": 53.793776,
    "long": -2.244644,
    "crsCode": "BNC",
    "iataAirportCode": "",
    "constituentCountry": "england"
  },
  {
    "stationName": "Burnley Manchester Road",
    "lat": 53.784962,
    "long": -2.248883,
    "crsCode": "BYM",
    "iataAirportCode": "",
    "constituentCountry": "england"
  },
  {
    "stationName": "Burnside",
    "lat": 55.817123,
    "long": -4.204029,
    "crsCode": "BUI",
    "iataAirportCode": "",
    "constituentCountry": "scotland"
  },
  {
    "stationName": "Burntisland",
    "lat": 56.057133,
    "long": -3.233214,
    "crsCode": "BTS",
    "iataAirportCode": "",
    "constituentCountry": "scotland"
  },
  {
    "stationName": "Burscough Bridge",
    "lat": 53.60519,
    "long": -2.841758,
    "crsCode": "BCB",
    "iataAirportCode": "",
    "constituentCountry": "england"
  },
  {
    "stationName": "Burscough Junction",
    "lat": 53.598011,
    "long": -2.840105,
    "crsCode": "BCJ",
    "iataAirportCode": "",
    "constituentCountry": "england"
  },
  {
    "stationName": "Bursledon",
    "lat": 50.882858,
    "long": -1.304835,
    "crsCode": "BUO",
    "iataAirportCode": "",
    "constituentCountry": "england"
  },
  {
    "stationName": "Burton Joyce",
    "lat": 52.984047,
    "long": -1.040698,
    "crsCode": "BUJ",
    "iataAirportCode": "",
    "constituentCountry": "england"
  },
  {
    "stationName": "Burton-On-Trent",
    "lat": 52.805798,
    "long": -1.64246,
    "crsCode": "BUT",
    "iataAirportCode": "",
    "constituentCountry": "england"
  },
  {
    "stationName": "Bury St Edmunds",
    "lat": 52.253727,
    "long": 0.713355,
    "crsCode": "BSE",
    "iataAirportCode": "",
    "constituentCountry": "england"
  },
  {
    "stationName": "Busby",
    "lat": 55.780109,
    "long": -4.262551,
    "crsCode": "BUS",
    "iataAirportCode": "",
    "constituentCountry": "scotland"
  },
  {
    "stationName": "Bush Hill Park",
    "lat": 51.642365,
    "long": -0.06916,
    "crsCode": "BHK",
    "iataAirportCode": "",
    "constituentCountry": "england"
  },
  {
    "stationName": "Bushey",
    "lat": 51.644669,
    "long": -0.384806,
    "crsCode": "BSH",
    "iataAirportCode": "",
    "constituentCountry": "england"
  },
  {
    "stationName": "Butlers Lane",
    "lat": 52.592376,
    "long": -1.838163,
    "crsCode": "BUL",
    "iataAirportCode": "",
    "constituentCountry": "england"
  },
  {
    "stationName": "Buxted",
    "lat": 50.990475,
    "long": 0.131651,
    "crsCode": "BXD",
    "iataAirportCode": "",
    "constituentCountry": "england"
  },
  {
    "stationName": "Buxton",
    "lat": 53.26058,
    "long": -1.913086,
    "crsCode": "BUX",
    "iataAirportCode": "",
    "constituentCountry": "england"
  },
  {
    "stationName": "Byfleet & New Haw",
    "lat": 51.349869,
    "long": -0.480714,
    "crsCode": "BFN",
    "iataAirportCode": "",
    "constituentCountry": "england"
  },
  {
    "stationName": "Bynea",
    "lat": 51.67276,
    "long": -4.098396,
    "crsCode": "BYE",
    "iataAirportCode": "",
    "constituentCountry": "wales"
  },
  {
    "stationName": "Cadoxton",
    "lat": 51.412422,
    "long": -3.248087,
    "crsCode": "CAD",
    "iataAirportCode": "",
    "constituentCountry": "wales"
  },
  {
    "stationName": "Caergwrle",
    "lat": 53.107922,
    "long": -3.033069,
    "crsCode": "CGW",
    "iataAirportCode": "",
    "constituentCountry": "wales"
  },
  {
    "stationName": "Caerphilly",
    "lat": 51.571903,
    "long": -3.217805,
    "crsCode": "CPH",
    "iataAirportCode": "",
    "constituentCountry": "wales"
  },
  {
    "stationName": "Caersws",
    "lat": 52.516262,
    "long": -3.43387,
    "crsCode": "CWS",
    "iataAirportCode": "",
    "constituentCountry": "wales"
  },
  {
    "stationName": "Caldercruix",
    "lat": 55.88791,
    "long": -3.88978,
    "crsCode": "CAC",
    "iataAirportCode": "",
    "constituentCountry": "scotland"
  },
  {
    "stationName": "Caldicot",
    "lat": 51.58474,
    "long": -2.760598,
    "crsCode": "CDT",
    "iataAirportCode": "",
    "constituentCountry": "wales"
  },
  {
    "stationName": "Caledonian Road & Barnsbury",
    "lat": 51.543301,
    "long": -0.115177,
    "crsCode": "CIR",
    "iataAirportCode": "",
    "constituentCountry": "england"
  },
  {
    "stationName": "Calstock",
    "lat": 50.497487,
    "long": -4.208665,
    "crsCode": "CSK",
    "iataAirportCode": "",
    "constituentCountry": "england"
  },
  {
    "stationName": "Cam & Dursley",
    "lat": 51.71701,
    "long": -2.366194,
    "crsCode": "CDU",
    "iataAirportCode": "",
    "constituentCountry": "england"
  },
  {
    "stationName": "Camberley",
    "lat": 51.335911,
    "long": -0.745328,
    "crsCode": "CAM",
    "iataAirportCode": "",
    "constituentCountry": "england"
  },
  {
    "stationName": "Camborne",
    "lat": 50.210392,
    "long": -5.297921,
    "crsCode": "CBN",
    "iataAirportCode": "",
    "constituentCountry": "england"
  },
  {
    "stationName": "Cambridge",
    "lat": 52.194519,
    "long": 0.137584,
    "crsCode": "CBG",
    "iataAirportCode": "",
    "constituentCountry": "england"
  },
  {
    "stationName": "Cambridge Heath",
    "lat": 51.53157,
    "long": -0.057997,
    "crsCode": "CBH",
    "iataAirportCode": "",
    "constituentCountry": "england"
  },
  {
    "stationName": "Cambridge North",
    "lat": 52.223333,
    "long": 0.157778,
    "crsCode": "CMB",
    "iataAirportCode": "",
    "constituentCountry": "england"
  },
  {
    "stationName": "Cambuslang",
    "lat": 55.819458,
    "long": -4.173839,
    "crsCode": "CBL",
    "iataAirportCode": "",
    "constituentCountry": "scotland"
  },
  {
    "stationName": "Camden Road",
    "lat": 51.541889,
    "long": -0.139764,
    "crsCode": "CMD",
    "iataAirportCode": "",
    "constituentCountry": "england"
  },
  {
    "stationName": "Camelon",
    "lat": 56.006775,
    "long": -3.817015,
    "crsCode": "CMO",
    "iataAirportCode": "",
    "constituentCountry": "scotland"
  },
  {
    "stationName": "Cameron Bridge",
    "lat": 56.189693,
    "long": -3.046855,
    "crsCode": "CBX",
    "iataAirportCode": "",
    "constituentCountry": "scotland"
  },
  {
    "stationName": "Canada Water",
    "lat": 51.49823,
    "long": -0.05076,
    "crsCode": "ZCW",
    "iataAirportCode": "",
    "constituentCountry": "england"
  },
  {
    "stationName": "Canary Wharf",
    "lat": 51.5061,
    "long": -0.01578,
    "crsCode": "CWX",
    "iataAirportCode": "",
    "constituentCountry": "england"
  },
  {
    "stationName": "Canley",
    "lat": 52.399418,
    "long": -1.547232,
    "crsCode": "CNL",
    "iataAirportCode": "",
    "constituentCountry": "england"
  },
  {
    "stationName": "Cannock",
    "lat": 52.686768,
    "long": -2.022158,
    "crsCode": "CAO",
    "iataAirportCode": "",
    "constituentCountry": "england"
  },
  {
    "stationName": "Canonbury",
    "lat": 51.548747,
    "long": -0.091614,
    "crsCode": "CNN",
    "iataAirportCode": "",
    "constituentCountry": "england"
  },
  {
    "stationName": "Canterbury East",
    "lat": 51.275261,
    "long": 1.075434,
    "crsCode": "CBE",
    "iataAirportCode": "",
    "constituentCountry": "england"
  },
  {
    "stationName": "Canterbury West",
    "lat": 51.284279,
    "long": 1.074608,
    "crsCode": "CBW",
    "iataAirportCode": "",
    "constituentCountry": "england"
  },
  {
    "stationName": "Cantley",
    "lat": 52.578907,
    "long": 1.512899,
    "crsCode": "CNY",
    "iataAirportCode": "",
    "constituentCountry": "england"
  },
  {
    "stationName": "Capenhurst",
    "lat": 53.260155,
    "long": -2.942908,
    "crsCode": "CPU",
    "iataAirportCode": "",
    "constituentCountry": "england"
  },
  {
    "stationName": "Carbis Bay",
    "lat": 50.19746,
    "long": -5.463815,
    "crsCode": "CBB",
    "iataAirportCode": "",
    "constituentCountry": "england"
  },
  {
    "stationName": "Cardenden",
    "lat": 56.141308,
    "long": -3.261651,
    "crsCode": "CDD",
    "iataAirportCode": "",
    "constituentCountry": "scotland"
  },
  {
    "stationName": "Cardiff Bay",
    "lat": 51.466324,
    "long": -3.166049,
    "crsCode": "CDB",
    "iataAirportCode": "",
    "constituentCountry": "wales"
  },
  {
    "stationName": "Cardiff Central",
    "lat": 51.475193,
    "long": -3.177794,
    "crsCode": "CDF",
    "iataAirportCode": "",
    "constituentCountry": "wales"
  },
  {
    "stationName": "Cardiff Queen Street",
    "lat": 51.482464,
    "long": -3.170782,
    "crsCode": "CDQ",
    "iataAirportCode": "",
    "constituentCountry": "wales"
  },
  {
    "stationName": "Cardonald",
    "lat": 55.853252,
    "long": -4.340297,
    "crsCode": "CDO",
    "iataAirportCode": "",
    "constituentCountry": "scotland"
  },
  {
    "stationName": "Cardross",
    "lat": 55.960163,
    "long": -4.652782,
    "crsCode": "CDR",
    "iataAirportCode": "",
    "constituentCountry": "scotland"
  },
  {
    "stationName": "Carfin",
    "lat": 55.806938,
    "long": -3.956112,
    "crsCode": "CRF",
    "iataAirportCode": "",
    "constituentCountry": "scotland"
  },
  {
    "stationName": "Cark",
    "lat": 54.177513,
    "long": -2.972746,
    "crsCode": "CAK",
    "iataAirportCode": "",
    "constituentCountry": "england"
  },
  {
    "stationName": "Carlisle",
    "lat": 54.890675,
    "long": -2.933833,
    "crsCode": "CAR",
    "iataAirportCode": "",
    "constituentCountry": "england"
  },
  {
    "stationName": "Carlton",
    "lat": 52.964573,
    "long": -1.078357,
    "crsCode": "CTO",
    "iataAirportCode": "",
    "constituentCountry": "england"
  },
  {
    "stationName": "Carluke",
    "lat": 55.730408,
    "long": -3.848761,
    "crsCode": "CLU",
    "iataAirportCode": "",
    "constituentCountry": "scotland"
  },
  {
    "stationName": "Carmarthen",
    "lat": 51.853233,
    "long": -4.305732,
    "crsCode": "CMN",
    "iataAirportCode": "",
    "constituentCountry": "wales"
  },
  {
    "stationName": "Carmyle",
    "lat": 55.834053,
    "long": -4.161873,
    "crsCode": "CML",
    "iataAirportCode": "",
    "constituentCountry": "scotland"
  },
  {
    "stationName": "Carnforth",
    "lat": 54.129688,
    "long": -2.771244,
    "crsCode": "CNF",
    "iataAirportCode": "",
    "constituentCountry": "england"
  },
  {
    "stationName": "Carnoustie",
    "lat": 56.500618,
    "long": -2.7066,
    "crsCode": "CAN",
    "iataAirportCode": "",
    "constituentCountry": "scotland"
  },
  {
    "stationName": "Carntyne",
    "lat": 55.854412,
    "long": -4.17898,
    "crsCode": "CAY",
    "iataAirportCode": "",
    "constituentCountry": "scotland"
  },
  {
    "stationName": "Carpenders Park",
    "lat": 51.627885,
    "long": -0.385578,
    "crsCode": "CPK",
    "iataAirportCode": "",
    "constituentCountry": "england"
  },
  {
    "stationName": "Carrbridge",
    "lat": 57.279873,
    "long": -3.829541,
    "crsCode": "CAG",
    "iataAirportCode": "",
    "constituentCountry": "scotland"
  },
  {
    "stationName": "Carshalton",
    "lat": 51.367859,
    "long": -0.16693,
    "crsCode": "CSH",
    "iataAirportCode": "",
    "constituentCountry": "england"
  },
  {
    "stationName": "Carshalton Beeches",
    "lat": 51.357117,
    "long": -0.17023,
    "crsCode": "CSB",
    "iataAirportCode": "",
    "constituentCountry": "england"
  },
  {
    "stationName": "Carstairs",
    "lat": 55.69075,
    "long": -3.668696,
    "crsCode": "CRS",
    "iataAirportCode": "",
    "constituentCountry": "scotland"
  },
  {
    "stationName": "Cartsdyke",
    "lat": 55.942261,
    "long": -4.731633,
    "crsCode": "CDY",
    "iataAirportCode": "",
    "constituentCountry": "scotland"
  },
  {
    "stationName": "Castle Bar Park",
    "lat": 51.522865,
    "long": -0.331575,
    "crsCode": "CBP",
    "iataAirportCode": "",
    "constituentCountry": "england"
  },
  {
    "stationName": "Castle Cary",
    "lat": 51.099583,
    "long": -2.522683,
    "crsCode": "CLC",
    "iataAirportCode": "",
    "constituentCountry": "england"
  },
  {
    "stationName": "Castleford",
    "lat": 53.724171,
    "long": -1.355852,
    "crsCode": "CFD",
    "iataAirportCode": "",
    "constituentCountry": "england"
  },
  {
    "stationName": "Castleton",
    "lat": 53.591804,
    "long": -2.178125,
    "crsCode": "CAS",
    "iataAirportCode": "",
    "constituentCountry": "england"
  },
  {
    "stationName": "Castleton Moor",
    "lat": 54.467297,
    "long": -0.947707,
    "crsCode": "CSM",
    "iataAirportCode": "",
    "constituentCountry": "england"
  },
  {
    "stationName": "Caterham",
    "lat": 51.282803,
    "long": -0.078539,
    "crsCode": "CAT",
    "iataAirportCode": "",
    "constituentCountry": "england"
  },
  {
    "stationName": "Catford",
    "lat": 51.444706,
    "long": -0.025701,
    "crsCode": "CTF",
    "iataAirportCode": "",
    "constituentCountry": "england"
  },
  {
    "stationName": "Catford Bridge",
    "lat": 51.444725,
    "long": -0.027142,
    "crsCode": "CFB",
    "iataAirportCode": "",
    "constituentCountry": "england"
  },
  {
    "stationName": "Cathays",
    "lat": 51.488678,
    "long": -3.178149,
    "crsCode": "CYS",
    "iataAirportCode": "",
    "constituentCountry": "wales"
  },
  {
    "stationName": "Cathcart",
    "lat": 55.817879,
    "long": -4.261552,
    "crsCode": "CCT",
    "iataAirportCode": "",
    "constituentCountry": "scotland"
  },
  {
    "stationName": "Cattal",
    "lat": 53.997515,
    "long": -1.319808,
    "crsCode": "CTL",
    "iataAirportCode": "",
    "constituentCountry": "england"
  },
  {
    "stationName": "Causeland",
    "lat": 50.405525,
    "long": -4.466937,
    "crsCode": "CAU",
    "iataAirportCode": "",
    "constituentCountry": "england"
  },
  {
    "stationName": "Cefn-Y-Bedd",
    "lat": 53.098511,
    "long": -3.031972,
    "crsCode": "CYB",
    "iataAirportCode": "",
    "constituentCountry": "wales"
  },
  {
    "stationName": "Chadwell Heath",
    "lat": 51.567905,
    "long": 0.128263,
    "crsCode": "CTH",
    "iataAirportCode": "",
    "constituentCountry": "england"
  },
  {
    "stationName": "Chafford Hundred",
    "lat": 51.502792,
    "long": 0.290938,
    "crsCode": "CFH",
    "iataAirportCode": "",
    "constituentCountry": "england"
  },
  {
    "stationName": "Chalfont & Latimer",
    "lat": 51.66835,
    "long": -0.560646,
    "crsCode": "CFO",
    "iataAirportCode": "",
    "constituentCountry": "england"
  },
  {
    "stationName": "Chalkwell",
    "lat": 51.53883,
    "long": 0.6706,
    "crsCode": "CHW",
    "iataAirportCode": "",
    "constituentCountry": "england"
  },
  {
    "stationName": "Chandlers Ford",
    "lat": 50.983,
    "long": -1.3845,
    "crsCode": "CFR",
    "iataAirportCode": "",
    "constituentCountry": "england"
  },
  {
    "stationName": "Chapel-En-Le-Frith",
    "lat": 53.312405,
    "long": -1.918915,
    "crsCode": "CEF",
    "iataAirportCode": "",
    "constituentCountry": "england"
  },
  {
    "stationName": "Chapeltown",
    "lat": 53.464046,
    "long": -1.466743,
    "crsCode": "CLN",
    "iataAirportCode": "",
    "constituentCountry": "england"
  },
  {
    "stationName": "Chapleton",
    "lat": 51.01577,
    "long": -4.024398,
    "crsCode": "CPN",
    "iataAirportCode": "",
    "constituentCountry": "england"
  },
  {
    "stationName": "Chappel & Wakes Colne",
    "lat": 51.925312,
    "long": 0.758944,
    "crsCode": "CWC",
    "iataAirportCode": "",
    "constituentCountry": "england"
  },
  {
    "stationName": "Charing",
    "lat": 51.208649,
    "long": 0.790337,
    "crsCode": "CHG",
    "iataAirportCode": "",
    "constituentCountry": "england"
  },
  {
    "stationName": "Charing Cross (Glasgow)",
    "lat": 55.865345,
    "long": -4.270689,
    "crsCode": "CHC",
    "iataAirportCode": "",
    "constituentCountry": "scotland"
  },
  {
    "stationName": "Charlbury",
    "lat": 51.872929,
    "long": -1.490133,
    "crsCode": "CBY",
    "iataAirportCode": "",
    "constituentCountry": "england"
  },
  {
    "stationName": "Charlton",
    "lat": 51.486904,
    "long": 0.030852,
    "crsCode": "CTN",
    "iataAirportCode": "",
    "constituentCountry": "england"
  },
  {
    "stationName": "Chartham",
    "lat": 51.256958,
    "long": 1.018303,
    "crsCode": "CRT",
    "iataAirportCode": "",
    "constituentCountry": "england"
  },
  {
    "stationName": "Chassen Road",
    "lat": 53.44605,
    "long": -2.368171,
    "crsCode": "CSR",
    "iataAirportCode": "",
    "constituentCountry": "england"
  },
  {
    "stationName": "Chatelherault",
    "lat": 55.76521,
    "long": -4.00466,
    "crsCode": "CTE",
    "iataAirportCode": "",
    "constituentCountry": "scotland"
  },
  {
    "stationName": "Chatham",
    "lat": 51.381161,
    "long": 0.520559,
    "crsCode": "CTM",
    "iataAirportCode": "",
    "constituentCountry": "england"
  },
  {
    "stationName": "Chathill",
    "lat": 55.536404,
    "long": -1.706846,
    "crsCode": "CHT",
    "iataAirportCode": "",
    "constituentCountry": "england"
  },
  {
    "stationName": "Cheadle Hulme",
    "lat": 53.375956,
    "long": -2.188125,
    "crsCode": "CHU",
    "iataAirportCode": "",
    "constituentCountry": "england"
  },
  {
    "stationName": "Cheam",
    "lat": 51.35601,
    "long": -0.2148,
    "crsCode": "CHE",
    "iataAirportCode": "",
    "constituentCountry": "england"
  },
  {
    "stationName": "Cheddington",
    "lat": 51.857908,
    "long": -0.662168,
    "crsCode": "CED",
    "iataAirportCode": "",
    "constituentCountry": "england"
  },
  {
    "stationName": "Chelford",
    "lat": 53.270744,
    "long": -2.280375,
    "crsCode": "CEL",
    "iataAirportCode": "",
    "constituentCountry": "england"
  },
  {
    "stationName": "Chelmsford",
    "lat": 51.736595,
    "long": 0.469316,
    "crsCode": "CHM",
    "iataAirportCode": "",
    "constituentCountry": "england"
  },
  {
    "stationName": "Chelsfield",
    "lat": 51.35603,
    "long": 0.108373,
    "crsCode": "CLD",
    "iataAirportCode": "",
    "constituentCountry": "england"
  },
  {
    "stationName": "Cheltenham Spa",
    "lat": 51.896465,
    "long": -2.100245,
    "crsCode": "CNM",
    "iataAirportCode": "",
    "constituentCountry": "england"
  },
  {
    "stationName": "Chepstow",
    "lat": 51.640137,
    "long": -2.67193,
    "crsCode": "CPW",
    "iataAirportCode": "",
    "constituentCountry": "wales"
  },
  {
    "stationName": "Cherry Tree",
    "lat": 53.732868,
    "long": -2.518401,
    "crsCode": "CYT",
    "iataAirportCode": "",
    "constituentCountry": "england"
  },
  {
    "stationName": "Chertsey",
    "lat": 51.387108,
    "long": -0.509667,
    "crsCode": "CHY",
    "iataAirportCode": "",
    "constituentCountry": "england"
  },
  {
    "stationName": "Cheshunt",
    "lat": 51.702747,
    "long": -0.023171,
    "crsCode": "CHN",
    "iataAirportCode": "",
    "constituentCountry": "england"
  },
  {
    "stationName": "Chessington North",
    "lat": 51.364483,
    "long": -0.300661,
    "crsCode": "CSN",
    "iataAirportCode": "",
    "constituentCountry": "england"
  },
  {
    "stationName": "Chessington South",
    "lat": 51.356491,
    "long": -0.308144,
    "crsCode": "CSS",
    "iataAirportCode": "",
    "constituentCountry": "england"
  },
  {
    "stationName": "Chester",
    "lat": 53.196815,
    "long": -2.880152,
    "crsCode": "CTR",
    "iataAirportCode": "",
    "constituentCountry": "england"
  },
  {
    "stationName": "Chester Road",
    "lat": 52.535575,
    "long": -1.832582,
    "crsCode": "CRD",
    "iataAirportCode": "",
    "constituentCountry": "england"
  },
  {
    "stationName": "Chester-Le-Street",
    "lat": 54.854885,
    "long": -1.577847,
    "crsCode": "CLS",
    "iataAirportCode": "",
    "constituentCountry": "england"
  },
  {
    "stationName": "Chesterfield",
    "lat": 53.238209,
    "long": -1.42011,
    "crsCode": "CHD",
    "iataAirportCode": "",
    "constituentCountry": "england"
  },
  {
    "stationName": "Chestfield & Swalecliffe",
    "lat": 51.360004,
    "long": 1.068182,
    "crsCode": "CSW",
    "iataAirportCode": "",
    "constituentCountry": "england"
  },
  {
    "stationName": "Chetnole",
    "lat": 50.866428,
    "long": -2.574072,
    "crsCode": "CNO",
    "iataAirportCode": "",
    "constituentCountry": "england"
  },
  {
    "stationName": "Chichester",
    "lat": 50.831821,
    "long": -0.783032,
    "crsCode": "CCH",
    "iataAirportCode": "",
    "constituentCountry": "england"
  },
  {
    "stationName": "Chilham",
    "lat": 51.244549,
    "long": 0.975937,
    "crsCode": "CIL",
    "iataAirportCode": "",
    "constituentCountry": "england"
  },
  {
    "stationName": "Chilworth",
    "lat": 51.21553,
    "long": -0.523795,
    "crsCode": "CHL",
    "iataAirportCode": "",
    "constituentCountry": "england"
  },
  {
    "stationName": "Chingford",
    "lat": 51.63385,
    "long": 0.009955,
    "crsCode": "CHI",
    "iataAirportCode": "",
    "constituentCountry": "england"
  },
  {
    "stationName": "Chinley",
    "lat": 53.340275,
    "long": -1.9444,
    "crsCode": "CLY",
    "iataAirportCode": "",
    "constituentCountry": "england"
  },
  {
    "stationName": "Chippenham",
    "lat": 51.462162,
    "long": -2.115123,
    "crsCode": "CPM",
    "iataAirportCode": "",
    "constituentCountry": "england"
  },
  {
    "stationName": "Chipstead",
    "lat": 51.309444,
    "long": -0.169259,
    "crsCode": "CHP",
    "iataAirportCode": "",
    "constituentCountry": "england"
  },
  {
    "stationName": "Chirk",
    "lat": 52.932793,
    "long": -3.066708,
    "crsCode": "CRK",
    "iataAirportCode": "",
    "constituentCountry": "wales"
  },
  {
    "stationName": "Chislehurst",
    "lat": 51.405506,
    "long": 0.057437,
    "crsCode": "CIT",
    "iataAirportCode": "",
    "constituentCountry": "england"
  },
  {
    "stationName": "Chiswick",
    "lat": 51.4809,
    "long": -0.267538,
    "crsCode": "CHK",
    "iataAirportCode": "",
    "constituentCountry": "england"
  },
  {
    "stationName": "Cholsey",
    "lat": 51.570135,
    "long": -1.157942,
    "crsCode": "CHO",
    "iataAirportCode": "",
    "constituentCountry": "england"
  },
  {
    "stationName": "Chorley",
    "lat": 53.652428,
    "long": -2.626693,
    "crsCode": "CRL",
    "iataAirportCode": "",
    "constituentCountry": "england"
  },
  {
    "stationName": "Chorleywood",
    "lat": 51.654188,
    "long": -0.51846,
    "crsCode": "CLW",
    "iataAirportCode": "",
    "constituentCountry": "england"
  },
  {
    "stationName": "Christchurch",
    "lat": 50.738148,
    "long": -1.784566,
    "crsCode": "CHR",
    "iataAirportCode": "",
    "constituentCountry": "england"
  },
  {
    "stationName": "Christs Hospital",
    "lat": 51.050629,
    "long": -0.363538,
    "crsCode": "CHH",
    "iataAirportCode": "",
    "constituentCountry": "england"
  },
  {
    "stationName": "Church & Oswaldtwistle",
    "lat": 53.750431,
    "long": -2.391216,
    "crsCode": "CTW",
    "iataAirportCode": "",
    "constituentCountry": "england"
  },
  {
    "stationName": "Church Fenton",
    "lat": 53.827671,
    "long": -1.226652,
    "crsCode": "CHF",
    "iataAirportCode": "",
    "constituentCountry": "england"
  },
  {
    "stationName": "Church Stretton",
    "lat": 52.536606,
    "long": -2.803485,
    "crsCode": "CTT",
    "iataAirportCode": "",
    "constituentCountry": "england"
  },
  {
    "stationName": "Cilmeri",
    "lat": 52.150936,
    "long": -3.45719,
    "crsCode": "CIM",
    "iataAirportCode": "",
    "constituentCountry": "wales"
  },
  {
    "stationName": "City Thameslink",
    "lat": 51.514336,
    "long": -0.103412,
    "crsCode": "CTK",
    "iataAirportCode": "",
    "constituentCountry": "england"
  },
  {
    "stationName": "Clacton-On-Sea",
    "lat": 51.793953,
    "long": 1.154134,
    "crsCode": "CLT",
    "iataAirportCode": "",
    "constituentCountry": "england"
  },
  {
    "stationName": "Clandon",
    "lat": 51.263832,
    "long": -0.503622,
    "crsCode": "CLA",
    "iataAirportCode": "",
    "constituentCountry": "england"
  },
  {
    "stationName": "Clapham (North Yorkshire)",
    "lat": 54.105392,
    "long": -2.409858,
    "crsCode": "CPY",
    "iataAirportCode": "",
    "constituentCountry": "england"
  },
  {
    "stationName": "Clapham High Street",
    "lat": 51.46534,
    "long": -0.1328,
    "crsCode": "CLP",
    "iataAirportCode": "",
    "constituentCountry": "england"
  },
  {
    "stationName": "Clapham Junction",
    "lat": 51.464134,
    "long": -0.170281,
    "crsCode": "CLJ",
    "iataAirportCode": "",
    "constituentCountry": "england"
  },
  {
    "stationName": "Clapton",
    "lat": 51.56213,
    "long": -0.056685,
    "crsCode": "CPT",
    "iataAirportCode": "",
    "constituentCountry": "england"
  },
  {
    "stationName": "Clarbeston Road",
    "lat": 51.852207,
    "long": -4.88221,
    "crsCode": "CLR",
    "iataAirportCode": "",
    "constituentCountry": "wales"
  },
  {
    "stationName": "Clarkston",
    "lat": 55.789753,
    "long": -4.275865,
    "crsCode": "CKS",
    "iataAirportCode": "",
    "constituentCountry": "scotland"
  },
  {
    "stationName": "Claverdon",
    "lat": 52.276424,
    "long": -1.696566,
    "crsCode": "CLV",
    "iataAirportCode": "",
    "constituentCountry": "england"
  },
  {
    "stationName": "Claygate",
    "lat": 51.360664,
    "long": -0.348207,
    "crsCode": "CLG",
    "iataAirportCode": "",
    "constituentCountry": "england"
  },
  {
    "stationName": "Cleethorpes",
    "lat": 53.56316,
    "long": -0.029584,
    "crsCode": "CLE",
    "iataAirportCode": "",
    "constituentCountry": "england"
  },
  {
    "stationName": "Cleland",
    "lat": 55.804073,
    "long": -3.909695,
    "crsCode": "CEA",
    "iataAirportCode": "",
    "constituentCountry": "scotland"
  },
  {
    "stationName": "Clifton",
    "lat": 53.522503,
    "long": -2.314811,
    "crsCode": "CLI",
    "iataAirportCode": "",
    "constituentCountry": "england"
  },
  {
    "stationName": "Clifton Down",
    "lat": 51.46423,
    "long": -2.611761,
    "crsCode": "CFN",
    "iataAirportCode": "",
    "constituentCountry": "england"
  },
  {
    "stationName": "Clitheroe",
    "lat": 53.87345,
    "long": -2.394365,
    "crsCode": "CLH",
    "iataAirportCode": "",
    "constituentCountry": "england"
  },
  {
    "stationName": "Clock House",
    "lat": 51.408096,
    "long": -0.041668,
    "crsCode": "CLK",
    "iataAirportCode": "",
    "constituentCountry": "england"
  },
  {
    "stationName": "Clunderwen",
    "lat": 51.8405,
    "long": -4.731915,
    "crsCode": "CUW",
    "iataAirportCode": "",
    "constituentCountry": "wales"
  },
  {
    "stationName": "Clydebank",
    "lat": 55.900562,
    "long": -4.403927,
    "crsCode": "CYK",
    "iataAirportCode": "",
    "constituentCountry": "scotland"
  },
  {
    "stationName": "Coatbridge Central",
    "lat": 55.863213,
    "long": -4.032443,
    "crsCode": "CBC",
    "iataAirportCode": "",
    "constituentCountry": "scotland"
  },
  {
    "stationName": "Coatbridge Sunnyside",
    "lat": 55.866886,
    "long": -4.027847,
    "crsCode": "CBS",
    "iataAirportCode": "",
    "constituentCountry": "scotland"
  },
  {
    "stationName": "Coatdyke",
    "lat": 55.864567,
    "long": -4.005343,
    "crsCode": "COA",
    "iataAirportCode": "",
    "constituentCountry": "scotland"
  },
  {
    "stationName": "Cobham & Stoke Dabernon",
    "lat": 51.318077,
    "long": -0.389917,
    "crsCode": "CSD",
    "iataAirportCode": "",
    "constituentCountry": "england"
  },
  {
    "stationName": "Codsall",
    "lat": 52.627262,
    "long": -2.200891,
    "crsCode": "CSL",
    "iataAirportCode": "",
    "constituentCountry": "england"
  },
  {
    "stationName": "Cogan",
    "lat": 51.445396,
    "long": -3.189974,
    "crsCode": "CGN",
    "iataAirportCode": "",
    "constituentCountry": "wales"
  },
  {
    "stationName": "Colchester",
    "lat": 51.900478,
    "long": 0.894085,
    "crsCode": "COL",
    "iataAirportCode": "",
    "constituentCountry": "england"
  },
  {
    "stationName": "Colchester Town",
    "lat": 51.886505,
    "long": 0.904055,
    "crsCode": "CET",
    "iataAirportCode": "",
    "constituentCountry": "england"
  },
  {
    "stationName": "Coleshill Parkway",
    "lat": 52.5164,
    "long": -1.7081,
    "crsCode": "CEH",
    "iataAirportCode": "",
    "constituentCountry": "england"
  },
  {
    "stationName": "Collingham",
    "lat": 53.144047,
    "long": -0.748588,
    "crsCode": "CLM",
    "iataAirportCode": "",
    "constituentCountry": "england"
  },
  {
    "stationName": "Collington",
    "lat": 50.839272,
    "long": 0.457142,
    "crsCode": "CLL",
    "iataAirportCode": "",
    "constituentCountry": "england"
  },
  {
    "stationName": "Colne",
    "lat": 53.85478,
    "long": -2.181087,
    "crsCode": "CNE",
    "iataAirportCode": "",
    "constituentCountry": "england"
  },
  {
    "stationName": "Colwall",
    "lat": 52.080284,
    "long": -2.357489,
    "crsCode": "CWL",
    "iataAirportCode": "",
    "constituentCountry": "england"
  },
  {
    "stationName": "Colwyn Bay",
    "lat": 53.296349,
    "long": -3.725462,
    "crsCode": "CWB",
    "iataAirportCode": "",
    "constituentCountry": "wales"
  },
  {
    "stationName": "Combe",
    "lat": 51.832277,
    "long": -1.392817,
    "crsCode": "CME",
    "iataAirportCode": "",
    "constituentCountry": "england"
  },
  {
    "stationName": "Commondale",
    "lat": 54.481018,
    "long": -0.97514,
    "crsCode": "COM",
    "iataAirportCode": "",
    "constituentCountry": "england"
  },
  {
    "stationName": "Congleton",
    "lat": 53.157637,
    "long": -2.192754,
    "crsCode": "CNG",
    "iataAirportCode": "",
    "constituentCountry": "england"
  },
  {
    "stationName": "Conisbrough",
    "lat": 53.48885,
    "long": -1.234333,
    "crsCode": "CNS",
    "iataAirportCode": "",
    "constituentCountry": "england"
  },
  {
    "stationName": "Connel Ferry",
    "lat": 56.451981,
    "long": -5.384973,
    "crsCode": "CON",
    "iataAirportCode": "",
    "constituentCountry": "scotland"
  },
  {
    "stationName": "Conon Bridge",
    "lat": 57.5617,
    "long": -4.4404,
    "crsCode": "CBD",
    "iataAirportCode": "",
    "constituentCountry": "scotland"
  },
  {
    "stationName": "Cononley",
    "lat": 53.917351,
    "long": -2.010631,
    "crsCode": "CEY",
    "iataAirportCode": "",
    "constituentCountry": "england"
  },
  {
    "stationName": "Conway Park",
    "lat": 53.386219,
    "long": -3.026886,
    "crsCode": "CNP",
    "iataAirportCode": "",
    "constituentCountry": "england"
  },
  {
    "stationName": "Conwy",
    "lat": 53.280093,
    "long": -3.83046,
    "crsCode": "CNW",
    "iataAirportCode": "",
    "constituentCountry": "wales"
  },
  {
    "stationName": "Cooden Beach",
    "lat": 50.83271,
    "long": 0.426969,
    "crsCode": "COB",
    "iataAirportCode": "",
    "constituentCountry": "england"
  },